{"version": 0.6, "generator": "Overpass API 0.7.61.2 bd0cdeae", "osm3s": {"timestamp_osm_base": "2023-07-21T09:06:28Z", "copyright": "The data included in this document is from www.openstreetmap.org. The data is made available under ODbL."}, "elements": [{"type": "node", "id": 358543906, "lat": 35.5735501, "lon": 139.6698303}, {"type": "node", "id": 416999957, "lat": 35.6434992, "lon": 139.6094604, "tags": {"amenity": "police", "name": "\u6210\u57ce\u8b66\u5bdf\u7f72 \u7956\u5e2b\u30f6\u8c37\u5927\u8535\u4ea4\u756a"}}, {"type": "node", "id": 429506938, "lat": 35.6148441, "lon": 139.5295667, "tags": {"amenity": "police", "name": "\u8aad\u58f2\u30e9\u30f3\u30c9\u99c5\u524d\u4ea4\u756a"}}, {"type": "node", "id": 440130138, "lat": 35.6332289, "lon": 139.5772353, "tags": {"amenity": "police", "name": "\u8abf\u5e03\u8b66\u5bdf\u7f72\u72db\u6c5f\u4ea4\u756a"}}, {"type": "node", "id": 440152192, "lat": 35.657347, "lon": 139.5690814, "tags": {"amenity": "police", "name": "\u83ca\u91ce\u53f0\u4ea4\u756a"}}, {"type": "node", "id": 442128636, "lat": 35.6101704, "lon": 139.6780309, "tags": {"amenity": "police", "name": "\u7dd1\u304c\u4e18\u4ea4\u756a", "name:ja_rm": "Midorigaoka Koban"}}, {"type": "node", "id": 599261772, "lat": 35.6400648, "lon": 139.5993236, "tags": {"amenity": "police"}}, {"type": "node", "id": 601754753, "lat": 35.6481055, "lon": 139.6084581, "tags": {"amenity": "police", "name": "\u7956\u5e2b\u8c37\u5730\u57df\u5b89\u5168\u30bb\u30f3\u30bf\u30fc"}}, {"type": "node", "id": 603037298, "lat": 35.6140554, "lon": 139.5787623, "tags": {"amenity": "police", "name": "\u5bbf\u6cb3\u539f\u4ea4\u756a"}}, {"type": "node", "id": 610840121, "lat": 35.6329735, "lon": 139.5857385, "tags": {"amenity": "police", "name": "\u5ca9\u6238\u4ea4\u756a"}}, {"type": "node", "id": 751063124, "lat": 35.5809204, "lon": 139.642588, "tags": {"amenity": "police", "name": "\u4e2d\u539f\u8b66\u5bdf\u7f72\u6b66\u8535\u4e2d\u539f\u99c5\u524d\u4ea4\u756a"}}, {"type": "node", "id": 769073263, "lat": 35.5898694, "lon": 139.639508, "tags": {"amenity": "police", "name": "\u5bae\u5185\u4ea4\u756a"}}, {"type": "node", "id": 771580933, "lat": 35.5819534, "lon": 139.6510686, "tags": {"amenity": "police", "name": "\u5c0f\u6749\u4ea4\u756a"}}, {"type": "node", "id": 792596097, "lat": 35.6068083, "lon": 139.4811185, "tags": {"amenity": "police", "name": "\u6817\u5e73\u99c5\u524d\u4ea4\u756a"}}, {"type": "node", "id": 994887079, "lat": 35.6567083, "lon": 139.5399663, "tags": {"amenity": "police", "name": "\u8abf\u5e03\u8b66\u5bdf\u7f72\u96fb\u6c17\u901a\u4fe1\u5927\u5b66\u524d\u4ea4\u756a", "note": "National-Land Numerical Information (Public Facility) 2006, MLIT Japan", "note:ja": "\u56fd\u571f\u6570\u5024\u60c5\u5831\uff08\u516c\u5171\u65bd\u8a2d\u30c7\u30fc\u30bf\uff09\u5e73\u621019\u5e74\u3000\u56fd\u571f\u4ea4\u901a\u7701", "source": "KSJ2", "source_ref": "http://nlftp.mlit.go.jp/ksj/jpgis/datalist/KsjTmplt-P02-v2_0.html"}}, {"type": "node", "id": 998233532, "lat": 35.5771609, "lon": 139.5270696, "tags": {"amenity": "police", "name": "\u9752\u8449\u8b66\u5bdf\u7f72\u3059\u3059\u304d\u91ce\u4ea4\u756a", "source": "KSJ2"}}, {"type": "node", "id": 1059689143, "lat": 35.6135424, "lon": 139.6475267, "tags": {"amenity": "police", "name": "\u7389\u5ddd\u8b66\u5bdf\u7f72", "note": "National-Land Numerical Information (Public Facility) 2006, MLIT Japan", "note:ja": "\u56fd\u571f\u6570\u5024\u60c5\u5831\uff08\u516c\u5171\u65bd\u8a2d\u30c7\u30fc\u30bf\uff09\u5e73\u621019\u5e74\u3000\u56fd\u571f\u4ea4\u901a\u7701", "source": "KSJ2", "source_ref": "http://nlftp.mlit.go.jp/ksj/jpgis/datalist/KsjTmplt-P02-v2_0.html", "wikidata": "Q11572597", "wikipedia": "ja:\u7389\u5ddd\u8b66\u5bdf\u7f72"}}, {"type": "node", "id": 1249538652, "lat": 35.6579438, "lon": 139.7042959}, {"type": "node", "id": 1249538654, "lat": 35.6577444, "lon": 139.7040003}, {"type": "node", "id": 1249538655, "lat": 35.6577711, "lon": 139.7043179}, {"type": "node", "id": 1249538667, "lat": 35.6578151, "lon": 139.7037481}, {"type": "node", "id": 1249538668, "lat": 35.6577478, "lon": 139.7036935}, {"type": "node", "id": 1249538669, "lat": 35.6577922, "lon": 139.7037414}, {"type": "node", "id": 1249538670, "lat": 35.6578963, "lon": 139.7037317}, {"type": "node", "id": 1249538674, "lat": 35.6575751, "lon": 139.7039192}, {"type": "node", "id": 1360253800, "lat": 35.6399616, "lon": 139.5993416}, {"type": "node", "id": 1360253801, "lat": 35.6399694, "lon": 139.5993232}, {"type": "node", "id": 1360253802, "lat": 35.6399727, "lon": 139.5993368}, {"type": "node", "id": 1360253804, "lat": 35.6399765, "lon": 139.5993089}, {"type": "node", "id": 1360253806, "lat": 35.6399804, "lon": 139.5993178}, {"type": "node", "id": 1360253808, "lat": 35.6399964, "lon": 139.5993028}, {"type": "node", "id": 1360253811, "lat": 35.639997, "lon": 139.5994586}, {"type": "node", "id": 1360253828, "lat": 35.6400147, "lon": 139.5993633}, {"type": "node", "id": 1360253831, "lat": 35.6400257, "lon": 139.599413}, {"type": "node", "id": 1360253833, "lat": 35.640028, "lon": 139.5993565}, {"type": "node", "id": 1360253834, "lat": 35.6400318, "lon": 139.5994416}, {"type": "node", "id": 1360253835, "lat": 35.6400407, "lon": 139.5994062}, {"type": "node", "id": 1377643883, "lat": 35.6576549, "lon": 139.7040118}, {"type": "node", "id": 1400936796, "lat": 35.6573799, "lon": 139.6958935, "tags": {"amenity": "police", "name": "\u9053\u7384\u5742\u4e0a\u4ea4\u756a"}}, {"type": "node", "id": 1420766121, "lat": 35.6451493, "lon": 139.6792414, "tags": {"amenity": "police", "name": "\u4e16\u7530\u8c37\u8b66\u5bdf\u7f72 \u4e09\u5bbf\u4ea4\u756a", "note": "National-Land Numerical Information (Public Facility) 2006, MLIT Japan", "source": "KSJ2", "source_ref": "http://nlftp.mlit.go.jp/ksj/jpgis/datalist/KsjTmplt-P02-v2_0.html"}}, {"type": "node", "id": 1420766122, "lat": 35.6436911, "lon": 139.6704034, "tags": {"KSJ2:ADS": "\u592a\u5b50\u58024-22-1", "KSJ2:AdminArea": "\u6771\u4eac\u90fd\u4e16\u7530\u8c37\u533a", "KSJ2:PubFacAdmin": "\u90fd\u9053\u5e9c\u770c", "amenity": "police", "name": "\u4e16\u7530\u8c37\u8b66\u5bdf\u7f72\u4e09\u8ed2\u8336\u5c4b\u4ea4\u756a", "note": "National-Land Numerical Information (Public Facility) 2006, MLIT Japan", "note:ja": "\u56fd\u571f\u6570\u5024\u60c5\u5831\uff08\u516c\u5171\u65bd\u8a2d\u30c7\u30fc\u30bf\uff09\u5e73\u621019\u5e74\u3000\u56fd\u571f\u4ea4\u901a\u7701", "source": "KSJ2", "source_ref": "http://nlftp.mlit.go.jp/ksj/jpgis/datalist/KsjTmplt-P02-v2_0.html"}}, {"type": "node", "id": 1420766123, "lat": 35.635029, "lon": 139.66364, "tags": {"KSJ2:ADS": "\u4e0a\u99ac4-2-1", "KSJ2:AdminArea": "\u6771\u4eac\u90fd\u4e16\u7530\u8c37\u533a", "KSJ2:PubFacAdmin": "\u90fd\u9053\u5e9c\u770c", "amenity": "police", "name": "\u4e16\u7530\u8c37\u8b66\u5bdf\u7f72\u4e0a\u99ac\u4ea4\u756a", "note": "National-Land Numerical Information (Public Facility) 2006, MLIT Japan", "note:ja": "\u56fd\u571f\u6570\u5024\u60c5\u5831\uff08\u516c\u5171\u65bd\u8a2d\u30c7\u30fc\u30bf\uff09\u5e73\u621019\u5e74\u3000\u56fd\u571f\u4ea4\u901a\u7701", "source": "KSJ2", "source_ref": "http://nlftp.mlit.go.jp/ksj/jpgis/datalist/KsjTmplt-P02-v2_0.html"}}, {"type": "node", "id": 1420766124, "lat": 35.6359561, "lon": 139.6789311, "tags": {"amenity": "police", "name": "\u4e16\u7530\u8c37\u8b66\u5bdf\u7f72\u4e0b\u99ac\u56db\u4e01\u76ee\u4ea4\u756a", "note": "National-Land Numerical Information (Public Facility) 2006, MLIT Japan", "source": "KSJ2", "source_ref": "http://nlftp.mlit.go.jp/ksj/jpgis/datalist/KsjTmplt-P02-v2_0.html"}}, {"type": "node", "id": 1420766125, "lat": 35.6427105, "lon": 139.6512007, "tags": {"amenity": "police", "name": "\u4e16\u7530\u8c37\u8b66\u5bdf\u7f72\u4e16\u7530\u8c37\u4ea4\u756a", "note": "National-Land Numerical Information (Public Facility) 2006, MLIT Japan", "note:ja": "\u56fd\u571f\u6570\u5024\u60c5\u5831\uff08\u516c\u5171\u65bd\u8a2d\u30c7\u30fc\u30bf\uff09\u5e73\u621019\u5e74\u3000\u56fd\u571f\u4ea4\u901a\u7701", "source": "KSJ2", "source_ref": "http://nlftp.mlit.go.jp/ksj/jpgis/datalist/KsjTmplt-P02-v2_0.html"}}, {"type": "node", "id": 1420766127, "lat": 35.640072, "lon": 139.640751, "tags": {"KSJ2:ADS": "\u685c3-1-1", "KSJ2:AdminArea": "\u6771\u4eac\u90fd\u4e16\u7530\u8c37\u533a", "KSJ2:PubFacAdmin": "\u90fd\u9053\u5e9c\u770c", "amenity": "police", "name": "\u4e16\u7530\u8c37\u8b66\u5bdf\u7f72\u677e\u30f6\u4e18\u4ea4\u756a", "note": "National-Land Numerical Information (Public Facility) 2006, MLIT Japan", "note:ja": "\u56fd\u571f\u6570\u5024\u60c5\u5831\uff08\u516c\u5171\u65bd\u8a2d\u30c7\u30fc\u30bf\uff09\u5e73\u621019\u5e74\u3000\u56fd\u571f\u4ea4\u901a\u7701", "source": "KSJ2", "source_ref": "http://nlftp.mlit.go.jp/ksj/jpgis/datalist/KsjTmplt-P02-v2_0.html"}}, {"type": "node", "id": 1420766128, "lat": 35.6455607, "lon": 139.6225515, "tags": {"addr:block_number": "17", "addr:city": "\u4e16\u7530\u8c37\u533a", "addr:housenumber": "17", "addr:neighbourhood": "5\u4e01\u76ee", "addr:postcode": "156-0054", "addr:province": "\u6771\u4eac\u90fd", "addr:quarter": "\u685c\u5ca1", "amenity": "police", "name": "\u4e16\u7530\u8c37\u8b66\u5bdf\u7f72 \u685c\u4e18\u4ea4\u756a", "note": "National-Land Numerical Information (Public Facility) 2006, MLIT Japan", "note:ja": "\u56fd\u571f\u6570\u5024\u60c5\u5831\uff08\u516c\u5171\u65bd\u8a2d\u30c7\u30fc\u30bf\uff09\u5e73\u621019\u5e74\u3000\u56fd\u571f\u4ea4\u901a\u7701", "operator": "\u4e16\u7530\u8c37\u8b66\u5bdf\u7f72", "source": "KSJ2", "source_ref": "http://nlftp.mlit.go.jp/ksj/jpgis/datalist/KsjTmplt-P02-v2_0.html", "website": "https://www.keishicho.metro.tokyo.lg.jp/about_mpd/shokai/ichiran/kankatsu/setagaya/koban/07.html"}}, {"type": "node", "id": 1420766129, "lat": 35.6466525, "lon": 139.6440628, "tags": {"amenity": "police", "name": "\u4e16\u7530\u8c37\u8b66\u5bdf\u7f72 \u685c\u6728\u99d0\u5728\u6240", "note": "National-Land Numerical Information (Public Facility) 2006, MLIT Japan", "note:ja": "\u56fd\u571f\u6570\u5024\u60c5\u5831\uff08\u516c\u5171\u65bd\u8a2d\u30c7\u30fc\u30bf\uff09\u5e73\u621019\u5e74\u3000\u56fd\u571f\u4ea4\u901a\u7701", "source": "KSJ2", "source_ref": "http://nlftp.mlit.go.jp/ksj/jpgis/datalist/KsjTmplt-P02-v2_0.html"}}, {"type": "node", "id": 1420766130, "lat": 35.642295, "lon": 139.660582, "tags": {"amenity": "police", "name": "\u4e16\u7530\u8c37\u8b66\u5bdf\u7f72\u82e5\u6797\u4ea4\u756a", "note": "National-Land Numerical Information (Public Facility) 2006, MLIT Japan", "source": "KSJ2", "source_ref": "http://nlftp.mlit.go.jp/ksj/jpgis/datalist/KsjTmplt-P02-v2_0.html"}}, {"type": "node", "id": 1420766131, "lat": 35.630046, "lon": 139.671693, "tags": {"addr:block_number": "1", "addr:city": "\u4e16\u7530\u8c37\u533a", "addr:housenumber": "18", "addr:neighbourhood": "4", "addr:postcode": "154-0003", "addr:province": "\u6771\u4eac\u90fd", "addr:quarter": "\u91ce\u6ca2", "amenity": "police", "name": "\u4e16\u7530\u8c37\u8b66\u5bdf\u7f72\u91ce\u6ca2\u5730\u57df\u5b89\u5168\u30bb\u30f3\u30bf\u30fc", "note": "National-Land Numerical Information (Public Facility) 2006, MLIT Japan", "source": "KSJ2;local knowledge", "source_ref": "http://nlftp.mlit.go.jp/ksj/jpgis/datalist/KsjTmplt-P02-v2_0.html", "website": "https://www.keishicho.metro.tokyo.lg.jp/about_mpd/shokai/ichiran/kankatsu/setagaya/koban/10.html"}}, {"type": "node", "id": 1420767777, "lat": 35.632232, "lon": 139.4046913, "tags": {"amenity": "police", "name": "\u516b\u738b\u5b50\u8b66\u5bdf\u7f72\u5800\u4e4b\u5185\u99d0\u5728\u6240", "note": "National-Land Numerical Information (Public Facility) 2006, MLIT Japan", "note:ja": "\u56fd\u571f\u6570\u5024\u60c5\u5831\uff08\u516c\u5171\u65bd\u8a2d\u30c7\u30fc\u30bf\uff09\u5e73\u621019\u5e74\u3000\u56fd\u571f\u4ea4\u901a\u7701", "source": "KSJ2", "source_ref": "http://nlftp.mlit.go.jp/ksj/jpgis/datalist/KsjTmplt-P02-v2_0.html"}}, {"type": "node", "id": 1420767811, "lat": 35.630873, "lon": 139.414659, "tags": {"KSJ2:ADS": "\u677e\u304c\u8c371540-2", "KSJ2:AdminArea": "\u6771\u4eac\u90fd\u516b\u738b\u5b50\u5e02", "KSJ2:PubFacAdmin": "\u90fd\u9053\u5e9c\u770c", "amenity": "police", "name": "\u516b\u738b\u5b50\u8b66\u5bdf\u7f72\u677e\u304c\u8c37\u4ea4\u756a", "note": "National-Land Numerical Information (Public Facility) 2006, MLIT Japan", "note:ja": "\u56fd\u571f\u6570\u5024\u60c5\u5831\uff08\u516c\u5171\u65bd\u8a2d\u30c7\u30fc\u30bf\uff09\u5e73\u621019\u5e74\u3000\u56fd\u571f\u4ea4\u901a\u7701", "source": "KSJ2", "source_ref": "http://nlftp.mlit.go.jp/ksj/jpgis/datalist/KsjTmplt-P02-v2_0.html"}}, {"type": "node", "id": 1420768040, "lat": 35.6579147, "lon": 139.6525145, "tags": {"KSJ2:ADS": "\u677e\u539f6-4-14", "KSJ2:AdminArea": "\u6771\u4eac\u90fd\u4e16\u7530\u8c37\u533a", "KSJ2:PubFacAdmin": "\u90fd\u9053\u5e9c\u770c", "amenity": "police", "name": "\u5317\u6ca2\u8b66\u5bdf\u7f72", "name:en": "Kitazawa Police Station", "note": "National-Land Numerical Information (Public Facility) 2006, MLIT Japan", "note:ja": "\u56fd\u571f\u6570\u5024\u60c5\u5831\uff08\u516c\u5171\u65bd\u8a2d\u30c7\u30fc\u30bf\uff09\u5e73\u621019\u5e74\u3000\u56fd\u571f\u4ea4\u901a\u7701", "police": "station", "source": "survey; KSJ2", "source_ref": "http://nlftp.mlit.go.jp/ksj/jpgis/datalist/KsjTmplt-P02-v2_0.html", "wikidata": "Q11402333"}}, {"type": "node", "id": 1420768042, "lat": 35.6558809, "lon": 139.6597884, "tags": {"amenity": "police", "name": "\u5317\u6ca2\u8b66\u5bdf\u7f72\u5bae\u524d\u6a4b\u4ea4\u756a", "note": "National-Land Numerical Information (Public Facility) 2006, MLIT Japan", "note:ja": "\u56fd\u571f\u6570\u5024\u60c5\u5831\uff08\u516c\u5171\u65bd\u8a2d\u30c7\u30fc\u30bf\uff09\u5e73\u621019\u5e74\u3000\u56fd\u571f\u4ea4\u901a\u7701", "source": "KSJ2", "source_ref": "http://nlftp.mlit.go.jp/ksj/jpgis/datalist/KsjTmplt-P02-v2_0.html"}}, {"type": "node", "id": 1420768043, "lat": 35.655071, "lon": 139.673859, "tags": {"amenity": "police", "name": "\u5317\u6ca2\u8b66\u5bdf\u7f72\u6de1\u5cf6\u4ea4\u756a", "note": "National-Land Numerical Information (Public Facility) 2006, MLIT Japan", "source": "KSJ2", "source_ref": "http://nlftp.mlit.go.jp/ksj/jpgis/datalist/KsjTmplt-P02-v2_0.html"}}, {"type": "node", "id": 1420768045, "lat": 35.651571, "lon": 139.637223, "tags": {"KSJ2:ADS": "\u7d4c\u58022-1-38", "KSJ2:AdminArea": "\u6771\u4eac\u90fd\u4e16\u7530\u8c37\u533a", "KSJ2:PubFacAdmin": "\u90fd\u9053\u5e9c\u770c", "amenity": "police", "name": "\u5317\u6ca2\u8b66\u5bdf\u7f72\u7d4c\u5802\u99c5\u524d\u4ea4\u756a", "note": "National-Land Numerical Information (Public Facility) 2006, MLIT Japan", "note:ja": "\u56fd\u571f\u6570\u5024\u60c5\u5831\uff08\u516c\u5171\u65bd\u8a2d\u30c7\u30fc\u30bf\uff09\u5e73\u621019\u5e74\u3000\u56fd\u571f\u4ea4\u901a\u7701", "source": "KSJ2", "source_ref": "http://nlftp.mlit.go.jp/ksj/jpgis/datalist/KsjTmplt-P02-v2_0.html"}}, {"type": "node", "id": 1420768047, "lat": 35.6571544, "lon": 139.6423805, "tags": {"amenity": "police", "name": "\u5317\u6ca2\u8b66\u5bdf\u7f72 \u8d64\u5824\u4ea4\u756a", "note": "National-Land Numerical Information (Public Facility) 2006, MLIT Japan", "note:ja": "\u56fd\u571f\u6570\u5024\u60c5\u5831\uff08\u516c\u5171\u65bd\u8a2d\u30c7\u30fc\u30bf\uff09\u5e73\u621019\u5e74\u3000\u56fd\u571f\u4ea4\u901a\u7701", "source": "KSJ2", "source_ref": "http://nlftp.mlit.go.jp/ksj/jpgis/datalist/KsjTmplt-P02-v2_0.html"}}, {"type": "node", "id": 1420772346, "lat": 35.639822, "lon": 139.4873093, "tags": {"amenity": "police", "name": "\u591a\u6469\u4e2d\u592e\u8b66\u5bdf\u7f72\u5411\u967d\u53f0\u99d0\u5728\u6240", "note": "National-Land Numerical Information (Public Facility) 2006, MLIT Japan", "source": "KSJ2", "source_ref": "http://nlftp.mlit.go.jp/ksj/jpgis/datalist/KsjTmplt-P02-v2_0.html"}}, {"type": "node", "id": 1420772347, "lat": 35.6447192, "lon": 139.4348835, "tags": {"amenity": "police", "name": "\u591a\u6469\u4e2d\u592e\u8b66\u5bdf\u7f72\u548c\u7530\u99d0\u5728\u6240", "note": "National-Land Numerical Information (Public Facility) 2006, MLIT Japan", "note:ja": "\u56fd\u571f\u6570\u5024\u60c5\u5831\uff08\u516c\u5171\u65bd\u8a2d\u30c7\u30fc\u30bf\uff09\u5e73\u621019\u5e74\u3000\u56fd\u571f\u4ea4\u901a\u7701", "source": "KSJ2", "source_ref": "http://nlftp.mlit.go.jp/ksj/jpgis/datalist/KsjTmplt-P02-v2_0.html"}}, {"type": "node", "id": 1420772349, "lat": 35.6155886, "lon": 139.4117373, "tags": {"amenity": "police", "name": "\u591a\u6469\u4e2d\u592e\u8b66\u5bdf\u7f72\u5510\u6728\u7530\u99c5\u524d\u99d0\u5728\u6240", "source": "KSJ2"}}, {"type": "node", "id": 1420772360, "lat": 35.627932, "lon": 139.488737, "tags": {"amenity": "police", "name": "\u591a\u6469\u4e2d\u592e\u8b66\u5bdf\u7f72\u5742\u6d5c\u99d0\u5728\u6240", "source": "KSJ2"}}, {"type": "node", "id": 1420772367, "lat": 35.64792, "lon": 139.4929595, "tags": {"amenity": "police", "name": "\u591a\u6469\u4e2d\u592e\u8b66\u5bdf\u7f72\u5927\u4e38\u4ea4\u756a", "note": "National-Land Numerical Information (Public Facility) 2006, MLIT Japan", "note:ja": "\u56fd\u571f\u6570\u5024\u60c5\u5831\uff08\u516c\u5171\u65bd\u8a2d\u30c7\u30fc\u30bf\uff09\u5e73\u621019\u5e74\u3000\u56fd\u571f\u4ea4\u901a\u7701", "source": "KSJ2", "source_ref": "http://nlftp.mlit.go.jp/ksj/jpgis/datalist/KsjTmplt-P02-v2_0.html"}}, {"type": "node", "id": 1420772372, "lat": 35.608992, "lon": 139.488628, "tags": {"KSJ2:ADS": "\u5e73\u5c3e3-7-27", "KSJ2:AdminArea": "\u6771\u4eac\u90fd\u7a32\u57ce\u5e02", "KSJ2:PubFacAdmin": "\u90fd\u9053\u5e9c\u770c", "amenity": "police", "name": "\u591a\u6469\u4e2d\u592e\u8b66\u5bdf\u7f72\u5e73\u5c3e\u4ea4\u756a", "note": "National-Land Numerical Information (Public Facility) 2006, MLIT Japan", "note:ja": "\u56fd\u571f\u6570\u5024\u60c5\u5831\uff08\u516c\u5171\u65bd\u8a2d\u30c7\u30fc\u30bf\uff09\u5e73\u621019\u5e74\u3000\u56fd\u571f\u4ea4\u901a\u7701", "source": "KSJ2", "source_ref": "http://nlftp.mlit.go.jp/ksj/jpgis/datalist/KsjTmplt-P02-v2_0.html"}}, {"type": "node", "id": 1420772380, "lat": 35.645153, "lon": 139.506624, "tags": {"KSJ2:ADS": "\u6771\u9577\u6cbc602-2", "KSJ2:AdminArea": "\u6771\u4eac\u90fd\u7a32\u57ce\u5e02", "KSJ2:PubFacAdmin": "\u90fd\u9053\u5e9c\u770c", "amenity": "police", "name": "\u591a\u6469\u4e2d\u592e\u8b66\u5bdf\u7f72\u6771\u9577\u6cbc\u99d0\u5728\u6240", "note": "National-Land Numerical Information (Public Facility) 2006, MLIT Japan", "note:ja": "\u56fd\u571f\u6570\u5024\u60c5\u5831\uff08\u516c\u5171\u65bd\u8a2d\u30c7\u30fc\u30bf\uff09\u5e73\u621019\u5e74\u3000\u56fd\u571f\u4ea4\u901a\u7701", "source": "KSJ2", "source_ref": "http://nlftp.mlit.go.jp/ksj/jpgis/datalist/KsjTmplt-P02-v2_0.html"}}, {"type": "node", "id": 1420772393, "lat": 35.6203051, "lon": 139.4517338, "tags": {"KSJ2:ADS": "\u6c38\u5c714-20", "KSJ2:AdminArea": "\u6771\u4eac\u90fd\u591a\u6469\u5e02", "KSJ2:PubFacAdmin": "\u90fd\u9053\u5e9c\u770c", "amenity": "police", "name": "\u591a\u6469\u4e2d\u592e\u8b66\u5bdf\u7f72\u6c38\u5c71\u56db\u4e01\u76ee\u4ea4\u756a", "note": "National-Land Numerical Information (Public Facility) 2006, MLIT Japan", "note:ja": "\u56fd\u571f\u6570\u5024\u60c5\u5831\uff08\u516c\u5171\u65bd\u8a2d\u30c7\u30fc\u30bf\uff09\u5e73\u621019\u5e74\u3000\u56fd\u571f\u4ea4\u901a\u7701", "police": "box", "source": "KSJ2", "source_ref": "http://nlftp.mlit.go.jp/ksj/jpgis/datalist/KsjTmplt-P02-v2_0.html"}}, {"type": "node", "id": 1420772405, "lat": 35.6298715, "lon": 139.4478663, "tags": {"KSJ2:ADS": "\u6c38\u5c711-45", "KSJ2:AdminArea": "\u6771\u4eac\u90fd\u591a\u6469\u5e02", "KSJ2:PubFacAdmin": "\u90fd\u9053\u5e9c\u770c", "amenity": "police", "name": "\u591a\u6469\u4e2d\u592e\u8b66\u5bdf\u7f72\u6c38\u5c71\u99c5\u524d\u4ea4\u756a", "note": "National-Land Numerical Information (Public Facility) 2006, MLIT Japan", "note:ja": "\u56fd\u571f\u6570\u5024\u60c5\u5831\uff08\u516c\u5171\u65bd\u8a2d\u30c7\u30fc\u30bf\uff09\u5e73\u621019\u5e74\u3000\u56fd\u571f\u4ea4\u901a\u7701", "source": "KSJ2", "source_ref": "http://nlftp.mlit.go.jp/ksj/jpgis/datalist/KsjTmplt-P02-v2_0.html"}}, {"type": "node", "id": 1420772406, "lat": 35.6386776, "lon": 139.4982423, "tags": {"amenity": "police", "name": "\u591a\u6469\u4e2d\u592e\u8b66\u5bdf\u7f72\u767e\u6751\u99d0\u5728\u6240", "note": "National-Land Numerical Information (Public Facility) 2006, MLIT Japan", "source": "KSJ2", "source_ref": "http://nlftp.mlit.go.jp/ksj/jpgis/datalist/KsjTmplt-P02-v2_0.html"}}, {"type": "node", "id": 1420772413, "lat": 35.640337, "lon": 139.5208, "tags": {"amenity": "police", "name": "\u591a\u6469\u4e2d\u592e\u8b66\u5bdf\u7f72\u77e2\u91ce\u53e3\u4ea4\u756a", "note": "National-Land Numerical Information (Public Facility) 2006, MLIT Japan", "note:ja": "\u56fd\u571f\u6570\u5024\u60c5\u5831\uff08\u516c\u5171\u65bd\u8a2d\u30c7\u30fc\u30bf\uff09\u5e73\u621019\u5e74\u3000\u56fd\u571f\u4ea4\u901a\u7701", "source": "KSJ2", "source_ref": "http://nlftp.mlit.go.jp/ksj/jpgis/datalist/KsjTmplt-P02-v2_0.html"}}, {"type": "node", "id": 1420772431, "lat": 35.6119239, "lon": 139.4244175, "tags": {"amenity": "police", "name": "\u591a\u6469\u4e2d\u592e\u8b66\u5bdf\u7f72\u843d\u5408\u516d\u4e01\u76ee\u99d0\u5728\u6240", "note": "National-Land Numerical Information (Public Facility) 2006, MLIT Japan", "source": "KSJ2", "source_ref": "http://nlftp.mlit.go.jp/ksj/jpgis/datalist/KsjTmplt-P02-v2_0.html"}}, {"type": "node", "id": 1420772450, "lat": 35.6312162, "lon": 139.4850774, "tags": {"amenity": "police", "name": "\u591a\u6469\u4e2d\u592e\u8b66\u5bdf\u7f72\u9577\u5cf0\u99d0\u5728\u6240", "note": "National-Land Numerical Information (Public Facility) 2006, MLIT Japan", "source": "KSJ2", "source_ref": "http://nlftp.mlit.go.jp/ksj/jpgis/datalist/KsjTmplt-P02-v2_0.html"}}, {"type": "node", "id": 1420779863, "lat": 35.6599236, "lon": 139.4577111, "tags": {"amenity": "police", "name": "\u5e9c\u4e2d\u8b66\u5bdf\u7f72\u4e2d\u6cb3\u539f\u4ea4\u756a", "note": "National-Land Numerical Information (Public Facility) 2006, MLIT Japan", "note:ja": "\u56fd\u571f\u6570\u5024\u60c5\u5831\uff08\u516c\u5171\u65bd\u8a2d\u30c7\u30fc\u30bf\uff09\u5e73\u621019\u5e74\u3000\u56fd\u571f\u4ea4\u901a\u7701", "source": "KSJ2", "source_ref": "http://nlftp.mlit.go.jp/ksj/jpgis/datalist/KsjTmplt-P02-v2_0.html"}}, {"type": "node", "id": 1420779865, "lat": 35.6571306, "lon": 139.4635607, "tags": {"KSJ2:ADS": "\u5357\u753a4-40-12", "KSJ2:AdminArea": "\u6771\u4eac\u90fd\u5e9c\u4e2d\u5e02", "KSJ2:PubFacAdmin": "\u90fd\u9053\u5e9c\u770c", "amenity": "police", "name": "\u5e9c\u4e2d\u8b66\u5bdf\u7f72\u5357\u753a\u4ea4\u756a", "note": "National-Land Numerical Information (Public Facility) 2006, MLIT Japan", "note:ja": "\u56fd\u571f\u6570\u5024\u60c5\u5831\uff08\u516c\u5171\u65bd\u8a2d\u30c7\u30fc\u30bf\uff09\u5e73\u621019\u5e74\u3000\u56fd\u571f\u4ea4\u901a\u7701", "source": "KSJ2", "source_ref": "http://nlftp.mlit.go.jp/ksj/jpgis/datalist/KsjTmplt-P02-v2_0.html"}}, {"type": "node", "id": 1420779870, "lat": 35.656557, "lon": 139.499986, "tags": {"KSJ2:ADS": "\u5c0f\u67f3\u753a4-10-3", "KSJ2:AdminArea": "\u6771\u4eac\u90fd\u5e9c\u4e2d\u5e02", "KSJ2:PubFacAdmin": "\u90fd\u9053\u5e9c\u770c", "amenity": "police", "name": "\u5e9c\u4e2d\u8b66\u5bdf\u7f72\u591a\u6469\u5ddd\u7af6\u8247\u5834\u524d\u4ea4\u756a", "name:ja": "\u5e9c\u4e2d\u8b66\u5bdf\u7f72\u591a\u6469\u5ddd\u7af6\u8247\u5834\u524d\u4ea4\u756a", "note": "National-Land Numerical Information (Public Facility) 2006, MLIT Japan", "note:ja": "\u56fd\u571f\u6570\u5024\u60c5\u5831\uff08\u516c\u5171\u65bd\u8a2d\u30c7\u30fc\u30bf\uff09\u5e73\u621019\u5e74\u3000\u56fd\u571f\u4ea4\u901a\u7701", "source": "KSJ2", "source_ref": "http://nlftp.mlit.go.jp/ksj/jpgis/datalist/KsjTmplt-P02-v2_0.html"}}, {"type": "node", "id": 1420779887, "lat": 35.6575635, "lon": 139.4874786, "tags": {"amenity": "police", "name": "\u5e9c\u4e2d\u8b66\u5bdf\u7f72\u662f\u653f\u4ea4\u756a", "note": "National-Land Numerical Information (Public Facility) 2006, MLIT Japan", "note:ja": "\u56fd\u571f\u6570\u5024\u60c5\u5831\uff08\u516c\u5171\u65bd\u8a2d\u30c7\u30fc\u30bf\uff09\u5e73\u621019\u5e74\u3000\u56fd\u571f\u4ea4\u901a\u7701", "source": "KSJ2", "source_ref": "http://nlftp.mlit.go.jp/ksj/jpgis/datalist/KsjTmplt-P02-v2_0.html"}}, {"type": "node", "id": 1420780406, "lat": 35.6520515, "lon": 139.6159218, "tags": {"amenity": "police", "name": "\u6210\u57ce\u8b66\u5bdf\u7f72", "name:en": "Seijyo Police Station", "name:ja": "\u6210\u57ce\u8b66\u5bdf\u7f72", "note": "National-Land Numerical Information (Public Facility) 2006, MLIT Japan", "note:ja": "\u56fd\u571f\u6570\u5024\u60c5\u5831\uff08\u516c\u5171\u65bd\u8a2d\u30c7\u30fc\u30bf\uff09\u5e73\u621019\u5e74\u3000\u56fd\u571f\u4ea4\u901a\u7701", "source": "KSJ2", "source_ref": "http://nlftp.mlit.go.jp/ksj/jpgis/datalist/KsjTmplt-P02-v2_0.html", "wikidata": "Q11495412"}}, {"type": "node", "id": 1420780408, "lat": 35.6572341, "lon": 139.5962945, "tags": {"amenity": "police", "name": "\u6210\u57ce\u8b66\u5bdf\u7f72\u4e0a\u7956\u5e2b\u8c37\u99d0\u5728\u6240", "note": "National-Land Numerical Information (Public Facility) 2006, MLIT Japan", "note:ja": "\u56fd\u571f\u6570\u5024\u60c5\u5831\uff08\u516c\u5171\u65bd\u8a2d\u30c7\u30fc\u30bf\uff09\u5e73\u621019\u5e74\u3000\u56fd\u571f\u4ea4\u901a\u7701", "source": "KSJ2", "source_ref": "http://nlftp.mlit.go.jp/ksj/jpgis/datalist/KsjTmplt-P02-v2_0.html"}}, {"type": "node", "id": 1420780417, "lat": 35.658237, "lon": 139.6092004, "tags": {"amenity": "police", "name": "\u6210\u57ce\u8b66\u5bdf\u7f72\u5343\u6b73\u53f0\u4ea4\u756a", "note": "National-Land Numerical Information (Public Facility) 2006, MLIT Japan", "note:ja": "\u56fd\u571f\u6570\u5024\u60c5\u5831\uff08\u516c\u5171\u65bd\u8a2d\u30c7\u30fc\u30bf\uff09\u5e73\u621019\u5e74\u3000\u56fd\u571f\u4ea4\u901a\u7701", "source": "KSJ2", "source_ref": "http://nlftp.mlit.go.jp/ksj/jpgis/datalist/KsjTmplt-P02-v2_0.html"}}, {"type": "node", "id": 1420780420, "lat": 35.647397, "lon": 139.6234683, "tags": {"KSJ2:ADS": "\u8239\u6a4b1-1-5", "KSJ2:AdminArea": "\u6771\u4eac\u90fd\u4e16\u7530\u8c37\u533a", "KSJ2:PubFacAdmin": "\u90fd\u9053\u5e9c\u770c", "amenity": "police", "name": "\u6210\u57ce\u8b66\u5bdf\u7f72\u5343\u6b73\u8239\u6a4b\u99c5\u524d\u4ea4\u756a", "note": "National-Land Numerical Information (Public Facility) 2006, MLIT Japan", "note:ja": "\u56fd\u571f\u6570\u5024\u60c5\u5831\uff08\u516c\u5171\u65bd\u8a2d\u30c7\u30fc\u30bf\uff09\u5e73\u621019\u5e74\u3000\u56fd\u571f\u4ea4\u901a\u7701", "source": "KSJ2", "source_ref": "http://nlftp.mlit.go.jp/ksj/jpgis/datalist/KsjTmplt-P02-v2_0.html"}}, {"type": "node", "id": 1420780421, "lat": 35.6371041, "lon": 139.5878089, "tags": {"amenity": "police", "name": "\u6210\u57ce\u8b66\u5bdf\u7f72 \u559c\u591a\u898b\u99c5\u524d\u4ea4\u756a", "note": "National-Land Numerical Information (Public Facility) 2006, MLIT Japan", "note:ja": "\u56fd\u571f\u6570\u5024\u60c5\u5831\uff08\u516c\u5171\u65bd\u8a2d\u30c7\u30fc\u30bf\uff09\u5e73\u621019\u5e74\u3000\u56fd\u571f\u4ea4\u901a\u7701", "police": "box", "source": "survey; KSJ2"}}, {"type": "node", "id": 1420780422, "lat": 35.62724, "lon": 139.599727, "tags": {"amenity": "police", "name": "\u6210\u57ce\u8b66\u5bdf\u7f72\u559c\u591a\u898b\u99d0\u5728\u6240", "note": "National-Land Numerical Information (Public Facility) 2006, MLIT Japan", "note:ja": "\u56fd\u571f\u6570\u5024\u60c5\u5831\uff08\u516c\u5171\u65bd\u8a2d\u30c7\u30fc\u30bf\uff09\u5e73\u621019\u5e74\u3000\u56fd\u571f\u4ea4\u901a\u7701", "source": "KSJ2"}}, {"type": "node", "id": 1420780424, "lat": 35.627212, "lon": 139.620475, "tags": {"amenity": "police", "name": "\u6210\u57ce\u8b66\u5bdf\u7f72\u5ca1\u672c\u99d0\u5728\u6240", "note": "National-Land Numerical Information (Public Facility) 2006, MLIT Japan", "source": "KSJ2"}}, {"type": "node", "id": 1420780425, "lat": 35.64046, "lon": 139.599171, "tags": {"amenity": "police", "name": "\u6210\u57ce\u8b66\u5bdf\u7f72\u6210\u57ce\u4ea4\u756a", "note": "National-Land Numerical Information (Public Facility) 2006, MLIT Japan", "note:ja": "\u56fd\u571f\u6570\u5024\u60c5\u5831\uff08\u516c\u5171\u65bd\u8a2d\u30c7\u30fc\u30bf\uff09\u5e73\u621019\u5e74\u3000\u56fd\u571f\u4ea4\u901a\u7701", "source": "KSJ2"}}, {"type": "node", "id": 1420780426, "lat": 35.6316948, "lon": 139.6038246, "tags": {"amenity": "police", "name": "\u6210\u57ce\u8b66\u5bdf\u7f72 \u6771\u5b9d\u524d\u4ea4\u756a", "note": "National-Land Numerical Information (Public Facility) 2006, MLIT Japan", "source": "KSJ2"}}, {"type": "node", "id": 1420780432, "lat": 35.642849, "lon": 139.608948, "tags": {"KSJ2:ADS": "\u78276-39-7", "KSJ2:AdminArea": "\u6771\u4eac\u90fd\u4e16\u7530\u8c37\u533a", "KSJ2:PubFacAdmin": "\u90fd\u9053\u5e9c\u770c", "amenity": "police", "name": "\u6210\u57ce\u8b66\u5bdf\u7f72\u7956\u5e2b\u8c37\u5927\u8535\u4ea4\u756a", "note": "National-Land Numerical Information (Public Facility) 2006, MLIT Japan", "note:ja": "\u56fd\u571f\u6570\u5024\u60c5\u5831\uff08\u516c\u5171\u65bd\u8a2d\u30c7\u30fc\u30bf\uff09\u5e73\u621019\u5e74\u3000\u56fd\u571f\u4ea4\u901a\u7701", "source": "KSJ2", "source_ref": "http://nlftp.mlit.go.jp/ksj/jpgis/datalist/KsjTmplt-P02-v2_0.html"}}, {"type": "node", "id": 1420780434, "lat": 35.6569345, "lon": 139.6230995, "tags": {"KSJ2:ADS": "\u8239\u6a4b6-26-10", "KSJ2:AdminArea": "\u6771\u4eac\u90fd\u4e16\u7530\u8c37\u533a", "KSJ2:PubFacAdmin": "\u90fd\u9053\u5e9c\u770c", "amenity": "police", "name": "\u6210\u57ce\u8b66\u5bdf\u7f72\u8239\u6a4b\u4ea4\u756a", "note": "National-Land Numerical Information (Public Facility) 2006, MLIT Japan", "note:ja": "\u56fd\u571f\u6570\u5024\u60c5\u5831\uff08\u516c\u5171\u65bd\u8a2d\u30c7\u30fc\u30bf\uff09\u5e73\u621019\u5e74\u3000\u56fd\u571f\u4ea4\u901a\u7701", "source": "KSJ2", "source_ref": "http://nlftp.mlit.go.jp/ksj/jpgis/datalist/KsjTmplt-P02-v2_0.html"}}, {"type": "node", "id": 1420780436, "lat": 35.62088, "lon": 139.612393, "tags": {"amenity": "police", "name": "\u6210\u57ce\u8b66\u5bdf\u7f72\u938c\u7530\u99d0\u5728\u6240", "note": "National-Land Numerical Information (Public Facility) 2006, MLIT Japan", "source": "KSJ2"}}, {"type": "node", "id": 1420787752, "lat": 35.574361, "lon": 139.698658, "tags": {"KSJ2:ADS": "\u6c60\u4e0a3-20-10", "KSJ2:AdminArea": "\u6771\u4eac\u90fd\u5927\u7530\u533a", "KSJ2:PubFacAdmin": "\u90fd\u9053\u5e9c\u770c", "amenity": "police", "name": "\u6c60\u4e0a\u8b66\u5bdf\u7f72", "note": "National-Land Numerical Information (Public Facility) 2006, MLIT Japan", "note:ja": "\u56fd\u571f\u6570\u5024\u60c5\u5831\uff08\u516c\u5171\u65bd\u8a2d\u30c7\u30fc\u30bf\uff09\u5e73\u621019\u5e74\u3000\u56fd\u571f\u4ea4\u901a\u7701", "source": "KSJ2", "source_ref": "http://nlftp.mlit.go.jp/ksj/jpgis/datalist/KsjTmplt-P02-v2_0.html", "wikidata": "Q11551492"}}, {"type": "node", "id": 1420787755, "lat": 35.5808581, "lon": 139.6907835, "tags": {"amenity": "police", "name": "\u6c60\u4e0a\u8b66\u5bdf\u7f72\u4e45\u304c\u539f\u4ea4\u756a", "note": "National-Land Numerical Information (Public Facility) 2006, MLIT Japan", "note:ja": "\u56fd\u571f\u6570\u5024\u60c5\u5831\uff08\u516c\u5171\u65bd\u8a2d\u30c7\u30fc\u30bf\uff09\u5e73\u621019\u5e74\u3000\u56fd\u571f\u4ea4\u901a\u7701", "source": "KSJ2", "source_ref": "http://nlftp.mlit.go.jp/ksj/jpgis/datalist/KsjTmplt-P02-v2_0.html"}}, {"type": "node", "id": 1420787756, "lat": 35.5711779, "lon": 139.6892565, "tags": {"KSJ2:ADS": "\u5343\u9ce53-19-1", "KSJ2:AdminArea": "\u6771\u4eac\u90fd\u5927\u7530\u533a", "KSJ2:PubFacAdmin": "\u90fd\u9053\u5e9c\u770c", "amenity": "police", "name": "\u6c60\u4e0a\u8b66\u5bdf\u7f72 \u5343\u9ce5\u4ea4\u756a", "note": "National-Land Numerical Information (Public Facility) 2006, MLIT Japan", "note:ja": "\u56fd\u571f\u6570\u5024\u60c5\u5831\uff08\u516c\u5171\u65bd\u8a2d\u30c7\u30fc\u30bf\uff09\u5e73\u621019\u5e74\u3000\u56fd\u571f\u4ea4\u901a\u7701", "source": "KSJ2", "source_ref": "http://nlftp.mlit.go.jp/ksj/jpgis/datalist/KsjTmplt-P02-v2_0.html"}}, {"type": "node", "id": 1420787763, "lat": 35.5869344, "lon": 139.7057815, "tags": {"KSJ2:ADS": "\u897f\u99ac\u8fbc2-2-1", "KSJ2:AdminArea": "\u6771\u4eac\u90fd\u5927\u7530\u533a", "KSJ2:PubFacAdmin": "\u90fd\u9053\u5e9c\u770c", "amenity": "police", "name": "\u6c60\u4e0a\u8b66\u5bdf\u7f72\u897f\u99ac\u8fbc\u4ea4\u756a", "note": "National-Land Numerical Information (Public Facility) 2006, MLIT Japan", "note:ja": "\u56fd\u571f\u6570\u5024\u60c5\u5831\uff08\u516c\u5171\u65bd\u8a2d\u30c7\u30fc\u30bf\uff09\u5e73\u621019\u5e74\u3000\u56fd\u571f\u4ea4\u901a\u7701", "source": "KSJ2", "source_ref": "http://nlftp.mlit.go.jp/ksj/jpgis/datalist/KsjTmplt-P02-v2_0.html", "wheelchair": "yes"}}, {"type": "node", "id": 1420789214, "lat": 35.647257, "lon": 139.701771, "tags": {"amenity": "police", "name": "\u6e0b\u8c37\u8b66\u5bdf\u7f72\u4ee3\u5b98\u5c71\u4ea4\u756a", "note": "National-Land Numerical Information (Public Facility) 2006, MLIT Japan", "opening_hours": "24/7", "source": "KSJ2; Bing; survey", "source_ref": "http://nlftp.mlit.go.jp/ksj/jpgis/datalist/KsjTmplt-P02-v2_0.html", "wheelchair": "limited"}}, {"type": "node", "id": 1420789218, "lat": 35.642824, "lon": 139.709912, "tags": {"KSJ2:ADS": "\u6075\u6bd4\u5bff\u53572-24-1", "KSJ2:AdminArea": "\u6771\u4eac\u90fd\u6e0b\u8c37\u533a", "KSJ2:PubFacAdmin": "\u90fd\u9053\u5e9c\u770c", "amenity": "police", "name": "\u6e0b\u8c37\u8b66\u5bdf\u7f72\u6075\u6bd4\u5bff\u5357\u99d0\u5728\u6240", "note": "National-Land Numerical Information (Public Facility) 2006, MLIT Japan", "note:ja": "\u56fd\u571f\u6570\u5024\u60c5\u5831\uff08\u516c\u5171\u65bd\u8a2d\u30c7\u30fc\u30bf\uff09\u5e73\u621019\u5e74\u3000\u56fd\u571f\u4ea4\u901a\u7701", "source": "KSJ2", "source_ref": "http://nlftp.mlit.go.jp/ksj/jpgis/datalist/KsjTmplt-P02-v2_0.html"}}, {"type": "node", "id": 1420789220, "lat": 35.6475188, "lon": 139.7093838}, {"type": "node", "id": 1420789222, "lat": 35.653794, "lon": 139.707911, "tags": {"KSJ2:ADS": "\u67712-23-1", "KSJ2:AdminArea": "\u6771\u4eac\u90fd\u6e0b\u8c37\u533a", "KSJ2:PubFacAdmin": "\u90fd\u9053\u5e9c\u770c", "amenity": "police", "name": "\u6e0b\u8c37\u8b66\u5bdf\u7f72\u6771\u4ea4\u756a", "note": "National-Land Numerical Information (Public Facility) 2006, MLIT Japan", "note:ja": "\u56fd\u571f\u6570\u5024\u60c5\u5831\uff08\u516c\u5171\u65bd\u8a2d\u30c7\u30fc\u30bf\uff09\u5e73\u621019\u5e74\u3000\u56fd\u571f\u4ea4\u901a\u7701", "source": "KSJ2", "source_ref": "http://nlftp.mlit.go.jp/ksj/jpgis/datalist/KsjTmplt-P02-v2_0.html", "wheelchair": "yes"}}, {"type": "node", "id": 1420789223, "lat": 35.6593164, "lon": 139.7010358, "tags": {"amenity": "police", "name": "\u6e0b\u8c37\u8b66\u5bdf\u7f72\u6e0b\u8c37\u99c5\u524d\u4ea4\u756a", "name:en": "Koban", "source": "KSJ2"}}, {"type": "node", "id": 1420789225, "lat": 35.6528835, "lon": 139.6981506, "tags": {"amenity": "police", "name": "\u6e0b\u8c37\u8b66\u5bdf\u7f72 \u9262\u5c71\u4ea4\u756a", "name:en": "Koban", "note": "National-Land Numerical Information (Public Facility) 2006, MLIT Japan", "source": "KSJ2", "source_ref": "http://nlftp.mlit.go.jp/ksj/jpgis/datalist/KsjTmplt-P02-v2_0.html"}}, {"type": "node", "id": 1420789783, "lat": 35.6121887, "lon": 139.6383048, "tags": {"amenity": "police", "name": "\u7389\u5ddd\u8b66\u5bdf\u7f72\u4e0a\u91ce\u6bdb\u4ea4\u756a", "note": "National-Land Numerical Information (Public Facility) 2006, MLIT Japan", "note:ja": "\u56fd\u571f\u6570\u5024\u60c5\u5831\uff08\u516c\u5171\u65bd\u8a2d\u30c7\u30fc\u30bf\uff09\u5e73\u621019\u5e74\u3000\u56fd\u571f\u4ea4\u901a\u7701", "source": "KSJ2", "source_ref": "http://nlftp.mlit.go.jp/ksj/jpgis/datalist/KsjTmplt-P02-v2_0.html"}}, {"type": "node", "id": 1420789791, "lat": 35.605965, "lon": 139.661722, "tags": {"KSJ2:ADS": "\u5965\u6ca27-34-1", "KSJ2:AdminArea": "\u6771\u4eac\u90fd\u4e16\u7530\u8c37\u533a", "KSJ2:PubFacAdmin": "\u90fd\u9053\u5e9c\u770c", "amenity": "police", "name": "\u7389\u5ddd\u8b66\u5bdf\u7f72\u4e5d\u54c1\u4ecf\u4ea4\u756a", "note": "National-Land Numerical Information (Public Facility) 2006, MLIT Japan", "note:ja": "\u56fd\u571f\u6570\u5024\u60c5\u5831\uff08\u516c\u5171\u65bd\u8a2d\u30c7\u30fc\u30bf\uff09\u5e73\u621019\u5e74\u3000\u56fd\u571f\u4ea4\u901a\u7701", "source": "KSJ2", "source_ref": "http://nlftp.mlit.go.jp/ksj/jpgis/datalist/KsjTmplt-P02-v2_0.html"}}, {"type": "node", "id": 1420789795, "lat": 35.612076, "lon": 139.62767, "tags": {"amenity": "police", "name": "\u7389\u5ddd\u8b66\u5bdf\u7f72\u4e8c\u5b50\u7389\u5ddd\u4ea4\u756a", "note": "National-Land Numerical Information (Public Facility) 2006, MLIT Japan", "source": "KSJ2"}}, {"type": "node", "id": 1420789800, "lat": 35.6040197, "lon": 139.6718851, "tags": {"KSJ2:ADS": "\u5965\u6ca22-9-20", "KSJ2:AdminArea": "\u6771\u4eac\u90fd\u4e16\u7530\u8c37\u533a", "KSJ2:PubFacAdmin": "\u90fd\u9053\u5e9c\u770c", "amenity": "police", "name": "\u7389\u5ddd\u8b66\u5bdf\u7f72\u5965\u6ca2\u99c5\u524d\u4ea4\u756a", "note": "National-Land Numerical Information (Public Facility) 2006, MLIT Japan", "note:ja": "\u56fd\u571f\u6570\u5024\u60c5\u5831\uff08\u516c\u5171\u65bd\u8a2d\u30c7\u30fc\u30bf\uff09\u5e73\u621019\u5e74\u3000\u56fd\u571f\u4ea4\u901a\u7701", "source": "KSJ2", "source_ref": "http://nlftp.mlit.go.jp/ksj/jpgis/datalist/KsjTmplt-P02-v2_0.html"}}, {"type": "node", "id": 1420789806, "lat": 35.607354, "lon": 139.653417, "tags": {"KSJ2:ADS": "\u7b49\u3005\u529b5-5-7", "KSJ2:AdminArea": "\u6771\u4eac\u90fd\u4e16\u7530\u8c37\u533a", "KSJ2:PubFacAdmin": "\u90fd\u9053\u5e9c\u770c", "amenity": "police", "name": "\u7389\u5ddd\u8b66\u5bdf\u7f72\u5c3e\u5c71\u53f0\u99c5\u524d\u4ea4\u756a", "note": "National-Land Numerical Information (Public Facility) 2006, MLIT Japan", "note:ja": "\u56fd\u571f\u6570\u5024\u60c5\u5831\uff08\u516c\u5171\u65bd\u8a2d\u30c7\u30fc\u30bf\uff09\u5e73\u621019\u5e74\u3000\u56fd\u571f\u4ea4\u901a\u7701", "source": "KSJ2", "source_ref": "http://nlftp.mlit.go.jp/ksj/jpgis/datalist/KsjTmplt-P02-v2_0.html"}}, {"type": "node", "id": 1420789810, "lat": 35.602188, "lon": 139.651584, "tags": {"amenity": "police", "name": "\u7389\u5ddd\u8b66\u5bdf\u7f72\u5c3e\u5c71\u53f0\u99d0\u5728\u6240", "source": "KSJ2"}}, {"type": "node", "id": 1420789817, "lat": 35.5966354, "lon": 139.675789, "tags": {"amenity": "police", "name": "\u7389\u5ddd\u8b66\u5bdf\u7f72\u6771\u7389\u5ddd\u4ea4\u756a", "note": "National-Land Numerical Information (Public Facility) 2006, MLIT Japan", "note:ja": "\u56fd\u571f\u6570\u5024\u60c5\u5831\uff08\u516c\u5171\u65bd\u8a2d\u30c7\u30fc\u30bf\uff09\u5e73\u621019\u5e74\u3000\u56fd\u571f\u4ea4\u901a\u7701", "source": "KSJ2", "source_ref": "http://nlftp.mlit.go.jp/ksj/jpgis/datalist/KsjTmplt-P02-v2_0.html"}}, {"type": "node", "id": 1420789820, "lat": 35.6285365, "lon": 139.643997, "tags": {"amenity": "police", "name": "\u7389\u5ddd\u8b66\u5bdf\u7f72\u685c\u65b0\u753a\u4ea4\u756a", "name:en": "Koban", "note": "National-Land Numerical Information (Public Facility) 2006, MLIT Japan", "note:ja": "\u56fd\u571f\u6570\u5024\u60c5\u5831\uff08\u516c\u5171\u65bd\u8a2d\u30c7\u30fc\u30bf\uff09\u5e73\u621019\u5e74\u3000\u56fd\u571f\u4ea4\u901a\u7701", "source": "KSJ2", "source_ref": "http://nlftp.mlit.go.jp/ksj/jpgis/datalist/KsjTmplt-P02-v2_0.html"}}, {"type": "node", "id": 1420789827, "lat": 35.620908, "lon": 139.653389, "tags": {"KSJ2:ADS": "\u6df1\u6ca25-5-19", "KSJ2:AdminArea": "\u6771\u4eac\u90fd\u4e16\u7530\u8c37\u533a", "KSJ2:PubFacAdmin": "\u90fd\u9053\u5e9c\u770c", "amenity": "police", "name": "\u7389\u5ddd\u8b66\u5bdf\u7f72\u6df1\u6ca2\u4ea4\u756a", "note": "National-Land Numerical Information (Public Facility) 2006, MLIT Japan", "note:ja": "\u56fd\u571f\u6570\u5024\u60c5\u5831\uff08\u516c\u5171\u65bd\u8a2d\u30c7\u30fc\u30bf\uff09\u5e73\u621019\u5e74\u3000\u56fd\u571f\u4ea4\u901a\u7701", "source": "KSJ2", "source_ref": "http://nlftp.mlit.go.jp/ksj/jpgis/datalist/KsjTmplt-P02-v2_0.html"}}, {"type": "node", "id": 1420789829, "lat": 35.6201597, "lon": 139.6305444, "tags": {"amenity": "police", "name": "\u7389\u5ddd\u8b66\u5bdf\u7f72\u702c\u7530\u4ea4\u756a", "note": "National-Land Numerical Information (Public Facility) 2006, MLIT Japan", "source": "KSJ2"}}, {"type": "node", "id": 1420789837, "lat": 35.626657, "lon": 139.633891, "tags": {"KSJ2:ADS": "\u7528\u8cc04-10-1", "KSJ2:AdminArea": "\u6771\u4eac\u90fd\u4e16\u7530\u8c37\u533a", "KSJ2:PubFacAdmin": "\u90fd\u9053\u5e9c\u770c", "amenity": "police", "name": "\u7389\u5ddd\u8b66\u5bdf\u7f72\u7528\u8cc0\u4ea4\u756a", "note": "National-Land Numerical Information (Public Facility) 2006, MLIT Japan", "note:ja": "\u56fd\u571f\u6570\u5024\u60c5\u5831\uff08\u516c\u5171\u65bd\u8a2d\u30c7\u30fc\u30bf\uff09\u5e73\u621019\u5e74\u3000\u56fd\u571f\u4ea4\u901a\u7701", "source": "KSJ2", "source_ref": "http://nlftp.mlit.go.jp/ksj/jpgis/datalist/KsjTmplt-P02-v2_0.html"}}, {"type": "node", "id": 1420789839, "lat": 35.60425, "lon": 139.6477784, "tags": {"amenity": "police", "name": "\u7389\u5ddd\u8b66\u5bdf\u7f72 \u7b49\u3005\u529b\u4e0d\u52d5\u524d\u99d0\u5728\u6240", "source": "KSJ2"}}, {"type": "node", "id": 1420789840, "lat": 35.6343488, "lon": 139.632167, "tags": {"KSJ2:ADS": "\u4e0a\u7528\u8cc02-1-2", "KSJ2:AdminArea": "\u6771\u4eac\u90fd\u4e16\u7530\u8c37\u533a", "KSJ2:PubFacAdmin": "\u90fd\u9053\u5e9c\u770c", "amenity": "police", "name": "\u7389\u5ddd\u8b66\u5bdf\u7f72\u99ac\u4e8b\u516c\u82d1\u524d\u4ea4\u756a", "note": "National-Land Numerical Information (Public Facility) 2006, MLIT Japan", "note:ja": "\u56fd\u571f\u6570\u5024\u60c5\u5831\uff08\u516c\u5171\u65bd\u8a2d\u30c7\u30fc\u30bf\uff09\u5e73\u621019\u5e74\u3000\u56fd\u571f\u4ea4\u901a\u7701", "source": "KSJ2", "source_ref": "http://nlftp.mlit.go.jp/ksj/jpgis/datalist/KsjTmplt-P02-v2_0.html", "wheelchair": "no"}}, {"type": "node", "id": 1420789985, "lat": 35.589135, "lon": 139.677305, "tags": {"amenity": "police", "name": "\u7530\u5712\u8abf\u5e03\u8b66\u5bdf\u7f72", "note": "National-Land Numerical Information (Public Facility) 2006, MLIT Japan", "note:ja": "\u56fd\u571f\u6570\u5024\u60c5\u5831\uff08\u516c\u5171\u65bd\u8a2d\u30c7\u30fc\u30bf\uff09\u5e73\u621019\u5e74\u3000\u56fd\u571f\u4ea4\u901a\u7701", "source": "KSJ2", "source_ref": "http://nlftp.mlit.go.jp/ksj/jpgis/datalist/KsjTmplt-P02-v2_0.html", "wikidata": "Q11576437"}}, {"type": "node", "id": 1420789986, "lat": 35.5910898, "lon": 139.6987799, "tags": {"KSJ2:ADS": "\u4e0a\u6c60\u53f05-31-20", "KSJ2:AdminArea": "\u6771\u4eac\u90fd\u5927\u7530\u533a", "KSJ2:PubFacAdmin": "\u90fd\u9053\u5e9c\u770c", "amenity": "police", "name": "\u7530\u5712\u8abf\u5e03\u8b66\u5bdf\u7f72\u4e2d\u8c37\u99d0\u5728\u6240", "note": "National-Land Numerical Information (Public Facility) 2006, MLIT Japan", "note:ja": "\u56fd\u571f\u6570\u5024\u60c5\u5831\uff08\u516c\u5171\u65bd\u8a2d\u30c7\u30fc\u30bf\uff09\u5e73\u621019\u5e74\u3000\u56fd\u571f\u4ea4\u901a\u7701", "source": "KSJ2", "source_ref": "http://nlftp.mlit.go.jp/ksj/jpgis/datalist/KsjTmplt-P02-v2_0.html"}}, {"type": "node", "id": 1420789987, "lat": 35.5860576, "lon": 139.6699667, "tags": {"amenity": "police", "name": "\u7530\u5712\u8abf\u5e03\u8b66\u5bdf\u7f72\u4e38\u5b50\u6a4b\u4ea4\u756a", "note": "National-Land Numerical Information (Public Facility) 2006, MLIT Japan", "note:ja": "\u56fd\u571f\u6570\u5024\u60c5\u5831\uff08\u516c\u5171\u65bd\u8a2d\u30c7\u30fc\u30bf\uff09\u5e73\u621019\u5e74\u3000\u56fd\u571f\u4ea4\u901a\u7701", "source": "KSJ2", "source_ref": "http://nlftp.mlit.go.jp/ksj/jpgis/datalist/KsjTmplt-P02-v2_0.html"}}, {"type": "node", "id": 1420789989, "lat": 35.5957188, "lon": 139.6610204, "tags": {"amenity": "police", "name": "\u7530\u5712\u8abf\u5e03\u8b66\u5bdf\u7f72\u591a\u6469\u5ddd\u53f0\u99d0\u5728\u6240", "note": "National-Land Numerical Information (Public Facility) 2006, MLIT Japan", "note:ja": "\u56fd\u571f\u6570\u5024\u60c5\u5831\uff08\u516c\u5171\u65bd\u8a2d\u30c7\u30fc\u30bf\uff09\u5e73\u621019\u5e74\u3000\u56fd\u571f\u4ea4\u901a\u7701", "source": "KSJ2", "source_ref": "http://nlftp.mlit.go.jp/ksj/jpgis/datalist/KsjTmplt-P02-v2_0.html"}}, {"type": "node", "id": 1420789990, "lat": 35.6074604, "lon": 139.6853122, "tags": {"KSJ2:ADS": "\u5317\u5343\u675f3-27-1", "KSJ2:AdminArea": "\u6771\u4eac\u90fd\u5927\u7530\u533a", "KSJ2:PubFacAdmin": "\u90fd\u9053\u5e9c\u770c", "amenity": "police", "name": "\u7530\u5712\u8abf\u5e03\u8b66\u5bdf\u7f72\u5927\u5ca1\u5c71\u99c5\u524d\u4ea4\u756a", "note": "National-Land Numerical Information (Public Facility) 2006, MLIT Japan", "note:ja": "\u56fd\u571f\u6570\u5024\u60c5\u5831\uff08\u516c\u5171\u65bd\u8a2d\u30c7\u30fc\u30bf\uff09\u5e73\u621019\u5e74\u3000\u56fd\u571f\u4ea4\u901a\u7701", "source": "KSJ2", "source_ref": "http://nlftp.mlit.go.jp/ksj/jpgis/datalist/KsjTmplt-P02-v2_0.html"}}, {"type": "node", "id": 1420789991, "lat": 35.5984419, "lon": 139.6993379, "tags": {"KSJ2:ADS": "\u4e0a\u6c60\u53f01-53-10", "KSJ2:AdminArea": "\u6771\u4eac\u90fd\u5927\u7530\u533a", "KSJ2:PubFacAdmin": "\u90fd\u9053\u5e9c\u770c", "amenity": "police", "name": "\u7530\u5712\u8abf\u5e03\u8b66\u5bdf\u7f72\u5c0f\u6c60\u99d0\u5728\u6240", "note": "National-Land Numerical Information (Public Facility) 2006, MLIT Japan", "note:ja": "\u56fd\u571f\u6570\u5024\u60c5\u5831\uff08\u516c\u5171\u65bd\u8a2d\u30c7\u30fc\u30bf\uff09\u5e73\u621019\u5e74\u3000\u56fd\u571f\u4ea4\u901a\u7701", "source": "KSJ2", "source_ref": "http://nlftp.mlit.go.jp/ksj/jpgis/datalist/KsjTmplt-P02-v2_0.html"}}, {"type": "node", "id": 1420789992, "lat": 35.585751, "lon": 139.6811789, "tags": {"KSJ2:ADS": "\u5317\u5dba\u753a34-24", "KSJ2:AdminArea": "\u6771\u4eac\u90fd\u5927\u7530\u533a", "KSJ2:PubFacAdmin": "\u90fd\u9053\u5e9c\u770c", "amenity": "police", "name": "\u7530\u5712\u8abf\u5e03\u8b66\u5bdf\u7f72\u5dba\u99d0\u5728\u6240", "note": "National-Land Numerical Information (Public Facility) 2006, MLIT Japan", "note:ja": "\u56fd\u571f\u6570\u5024\u60c5\u5831\uff08\u516c\u5171\u65bd\u8a2d\u30c7\u30fc\u30bf\uff09\u5e73\u621019\u5e74\u3000\u56fd\u571f\u4ea4\u901a\u7701", "source": "KSJ2", "source_ref": "http://nlftp.mlit.go.jp/ksj/jpgis/datalist/KsjTmplt-P02-v2_0.html"}}, {"type": "node", "id": 1420789995, "lat": 35.5974837, "lon": 139.6671722, "tags": {"KSJ2:ADS": "\u7530\u5712\u8abf\u5e032-62-3", "KSJ2:AdminArea": "\u6771\u4eac\u90fd\u5927\u7530\u533a", "KSJ2:PubFacAdmin": "\u90fd\u9053\u5e9c\u770c", "amenity": "police", "name": "\u7530\u5712\u8abf\u5e03\u8b66\u5bdf\u7f72\u7530\u5712\u8abf\u5e03\u99c5\u524d\u4ea4\u756a", "note": "National-Land Numerical Information (Public Facility) 2006, MLIT Japan", "note:ja": "\u56fd\u571f\u6570\u5024\u60c5\u5831\uff08\u516c\u5171\u65bd\u8a2d\u30c7\u30fc\u30bf\uff09\u5e73\u621019\u5e74\u3000\u56fd\u571f\u4ea4\u901a\u7701", "source": "KSJ2", "source_ref": "http://nlftp.mlit.go.jp/ksj/jpgis/datalist/KsjTmplt-P02-v2_0.html"}}, {"type": "node", "id": 1420789996, "lat": 35.5977359, "lon": 139.6839764, "tags": {"KSJ2:ADS": "\u6771\u96ea\u8c372-8-6", "KSJ2:AdminArea": "\u6771\u4eac\u90fd\u5927\u7530\u533a", "KSJ2:PubFacAdmin": "\u90fd\u9053\u5e9c\u770c", "amenity": "police", "name": "\u7530\u5712\u8abf\u5e03\u8b66\u5bdf\u7f72\u77f3\u5ddd\u53f0\u4ea4\u756a", "note": "National-Land Numerical Information (Public Facility) 2006, MLIT Japan", "note:ja": "\u56fd\u571f\u6570\u5024\u60c5\u5831\uff08\u516c\u5171\u65bd\u8a2d\u30c7\u30fc\u30bf\uff09\u5e73\u621019\u5e74\u3000\u56fd\u571f\u4ea4\u901a\u7701", "source": "KSJ2", "source_ref": "http://nlftp.mlit.go.jp/ksj/jpgis/datalist/KsjTmplt-P02-v2_0.html"}}, {"type": "node", "id": 1420789997, "lat": 35.5881248, "lon": 139.6965528, "tags": {"KSJ2:ADS": "\u4ef2\u6c60\u4e0a1-24-1", "KSJ2:AdminArea": "\u6771\u4eac\u90fd\u5927\u7530\u533a", "KSJ2:PubFacAdmin": "\u90fd\u9053\u5e9c\u770c", "amenity": "police", "name": "\u7530\u5712\u8abf\u5e03\u8b66\u5bdf\u7f72\u9053\u3005\u6a4b\u4ea4\u756a", "note": "National-Land Numerical Information (Public Facility) 2006, MLIT Japan", "note:ja": "\u56fd\u571f\u6570\u5024\u60c5\u5831\uff08\u516c\u5171\u65bd\u8a2d\u30c7\u30fc\u30bf\uff09\u5e73\u621019\u5e74\u3000\u56fd\u571f\u4ea4\u901a\u7701", "source": "KSJ2", "source_ref": "http://nlftp.mlit.go.jp/ksj/jpgis/datalist/KsjTmplt-P02-v2_0.html"}}, {"type": "node", "id": 1420789998, "lat": 35.575387, "lon": 139.681445, "tags": {"KSJ2:ADS": "\u9d5c\u306e\u67281-16-21", "KSJ2:AdminArea": "\u6771\u4eac\u90fd\u5927\u7530\u533a", "KSJ2:PubFacAdmin": "\u90fd\u9053\u5e9c\u770c", "amenity": "police", "name": "\u7530\u5712\u8abf\u5e03\u8b66\u5bdf\u7f72\u9d5c\u306e\u6728\u99c5\u524d\u4ea4\u756a", "note": "National-Land Numerical Information (Public Facility) 2006, MLIT Japan", "note:ja": "\u56fd\u571f\u6570\u5024\u60c5\u5831\uff08\u516c\u5171\u65bd\u8a2d\u30c7\u30fc\u30bf\uff09\u5e73\u621019\u5e74\u3000\u56fd\u571f\u4ea4\u901a\u7701", "source": "KSJ2", "source_ref": "http://nlftp.mlit.go.jp/ksj/jpgis/datalist/KsjTmplt-P02-v2_0.html"}}, {"type": "node", "id": 1420790226, "lat": 35.5720647, "lon": 139.4883448, "tags": {"KSJ2:ADS": "\u4e09\u8f2a\u7dd1\u5c712-1-12", "KSJ2:AdminArea": "\u6771\u4eac\u90fd\u753a\u7530\u5e02", "KSJ2:PubFacAdmin": "\u90fd\u9053\u5e9c\u770c", "amenity": "police", "name": "\u753a\u7530\u8b66\u5bdf\u7f72 \u4e09\u8f2a\u99d0\u5728\u6240", "note": "National-Land Numerical Information (Public Facility) 2006, MLIT Japan", "note:ja": "\u56fd\u571f\u6570\u5024\u60c5\u5831\uff08\u516c\u5171\u65bd\u8a2d\u30c7\u30fc\u30bf\uff09\u5e73\u621019\u5e74\u3000\u56fd\u571f\u4ea4\u901a\u7701", "source": "KSJ2", "source_ref": "http://nlftp.mlit.go.jp/ksj/jpgis/datalist/KsjTmplt-P02-v2_0.html"}}, {"type": "node", "id": 1420790229, "lat": 35.5807941, "lon": 139.4273847, "tags": {"amenity": "police", "name": "\u753a\u7530\u8b66\u5bdf\u7f72\u56f3\u5e2b\u99d0\u5728\u6240", "note": "National-Land Numerical Information (Public Facility) 2006, MLIT Japan", "source": "KSJ2", "source_ref": "http://nlftp.mlit.go.jp/ksj/jpgis/datalist/KsjTmplt-P02-v2_0.html"}}, {"type": "node", "id": 1420790231, "lat": 35.5844448, "lon": 139.4711594, "tags": {"amenity": "police", "name": "\u753a\u7530\u8b66\u5bdf\u7f72\u5927\u8535\u99d0\u5728\u6240", "note": "National-Land Numerical Information (Public Facility) 2006, MLIT Japan", "note:ja": "\u56fd\u571f\u6570\u5024\u60c5\u5831\uff08\u516c\u5171\u65bd\u8a2d\u30c7\u30fc\u30bf\uff09\u5e73\u621019\u5e74\u3000\u56fd\u571f\u4ea4\u901a\u7701", "source": "KSJ2", "source_ref": "http://nlftp.mlit.go.jp/ksj/jpgis/datalist/KsjTmplt-P02-v2_0.html"}}, {"type": "node", "id": 1420790232, "lat": 35.589628, "lon": 139.407189, "tags": {"amenity": "police", "name": "\u753a\u7530\u8b66\u5bdf\u7f72\u5c0f\u5c71\u7530\u99d0\u5728\u6240", "note": "National-Land Numerical Information (Public Facility) 2006, MLIT Japan", "source": "KSJ2", "source_ref": "http://nlftp.mlit.go.jp/ksj/jpgis/datalist/KsjTmplt-P02-v2_0.html"}}, {"type": "node", "id": 1420790234, "lat": 35.5995556, "lon": 139.4454073, "tags": {"amenity": "police", "name": "\u753a\u7530\u8b66\u5bdf\u7f72\u5c0f\u91ce\u8def\u99d0\u5728\u6240", "note": "National-Land Numerical Information (Public Facility) 2006, MLIT Japan", "note:ja": "\u56fd\u571f\u6570\u5024\u60c5\u5831\uff08\u516c\u5171\u65bd\u8a2d\u30c7\u30fc\u30bf\uff09\u5e73\u621019\u5e74\u3000\u56fd\u571f\u4ea4\u901a\u7701", "source": "KSJ2", "source_ref": "http://nlftp.mlit.go.jp/ksj/jpgis/datalist/KsjTmplt-P02-v2_0.html"}}, {"type": "node", "id": 1420790235, "lat": 35.5733054, "lon": 139.4363269, "tags": {"amenity": "police", "name": "\u753a\u7530\u8b66\u5bdf\u7f72\u5c71\u5d0e\u4ea4\u756a", "note": "National-Land Numerical Information (Public Facility) 2006, MLIT Japan", "note:ja": "\u56fd\u571f\u6570\u5024\u60c5\u5831\uff08\u516c\u5171\u65bd\u8a2d\u30c7\u30fc\u30bf\uff09\u5e73\u621019\u5e74\u3000\u56fd\u571f\u4ea4\u901a\u7701", "source": "KSJ2", "source_ref": "http://nlftp.mlit.go.jp/ksj/jpgis/datalist/KsjTmplt-P02-v2_0.html"}}, {"type": "node", "id": 1420790237, "lat": 35.582841, "lon": 139.403411, "tags": {"amenity": "police", "name": "\u753a\u7530\u8b66\u5bdf\u7f72\u5e38\u76e4\u99d0\u5728\u6240", "note": "National-Land Numerical Information (Public Facility) 2006, MLIT Japan", "source": "KSJ2", "source_ref": "http://nlftp.mlit.go.jp/ksj/jpgis/datalist/KsjTmplt-P02-v2_0.html"}}, {"type": "node", "id": 1420790238, "lat": 35.5797251, "lon": 139.4133519, "tags": {"amenity": "police", "name": "\u753a\u7530\u8b66\u5bdf\u7f72\u5fe0\u751f\u99d0\u5728\u6240", "note": "National-Land Numerical Information (Public Facility) 2006, MLIT Japan", "source": "KSJ2", "source_ref": "http://nlftp.mlit.go.jp/ksj/jpgis/datalist/KsjTmplt-P02-v2_0.html"}}, {"type": "node", "id": 1420790251, "lat": 35.602598, "lon": 139.46839, "tags": {"KSJ2:ADS": "\u771f\u5149\u5bfa2-14-2", "KSJ2:AdminArea": "\u6771\u4eac\u90fd\u753a\u7530\u5e02", "KSJ2:PubFacAdmin": "\u90fd\u9053\u5e9c\u770c", "amenity": "police", "name": "\u753a\u7530\u8b66\u5bdf\u7f72\u771f\u5149\u5bfa\u99d0\u5728\u6240", "note": "National-Land Numerical Information (Public Facility) 2006, MLIT Japan", "note:ja": "\u56fd\u571f\u6570\u5024\u60c5\u5831\uff08\u516c\u5171\u65bd\u8a2d\u30c7\u30fc\u30bf\uff09\u5e73\u621019\u5e74\u3000\u56fd\u571f\u4ea4\u901a\u7701", "source": "KSJ2", "source_ref": "http://nlftp.mlit.go.jp/ksj/jpgis/datalist/KsjTmplt-P02-v2_0.html"}}, {"type": "node", "id": 1420790252, "lat": 35.571763, "lon": 139.4556171, "tags": {"amenity": "police", "name": "\u753a\u7530\u8b66\u5bdf\u7f72\u85e4\u306e\u53f0\u56e3\u5730\u4ea4\u756a", "note": "National-Land Numerical Information (Public Facility) 2006, MLIT Japan", "note:ja": "\u56fd\u571f\u6570\u5024\u60c5\u5831\uff08\u516c\u5171\u65bd\u8a2d\u30c7\u30fc\u30bf\uff09\u5e73\u621019\u5e74\u3000\u56fd\u571f\u4ea4\u901a\u7701", "source": "KSJ2", "source_ref": "http://nlftp.mlit.go.jp/ksj/jpgis/datalist/KsjTmplt-P02-v2_0.html"}}, {"type": "node", "id": 1420790253, "lat": 35.5887656, "lon": 139.4543409, "tags": {"amenity": "police", "name": "\u753a\u7530\u8b66\u5bdf\u7f72\u91ce\u6d25\u7530\u99d0\u5728\u6240", "note": "National-Land Numerical Information (Public Facility) 2006, MLIT Japan", "note:ja": "\u56fd\u571f\u6570\u5024\u60c5\u5831\uff08\u516c\u5171\u65bd\u8a2d\u30c7\u30fc\u30bf\uff09\u5e73\u621019\u5e74\u3000\u56fd\u571f\u4ea4\u901a\u7701", "source": "KSJ2", "source_ref": "http://nlftp.mlit.go.jp/ksj/jpgis/datalist/KsjTmplt-P02-v2_0.html"}}, {"type": "node", "id": 1420790257, "lat": 35.5836702, "lon": 139.4815488, "tags": {"amenity": "police", "level": "0", "name": "\u753a\u7530\u8b66\u5bdf\u7f72\u9db4\u5ddd\u99c5\u524d\u4ea4\u756a", "source": "survey, 2014-12-20"}}, {"type": "node", "id": 1420790522, "lat": 35.6379645, "lon": 139.7050865, "tags": {"KSJ2:ADS": "\u4e2d\u76ee\u9ed22-7-13", "KSJ2:AdminArea": "\u6771\u4eac\u90fd\u76ee\u9ed2\u533a", "KSJ2:PubFacAdmin": "\u90fd\u9053\u5e9c\u770c", "amenity": "police", "name": "\u76ee\u9ed2\u8b66\u5bdf\u7f72", "note": "National-Land Numerical Information (Public Facility) 2006, MLIT Japan", "note:ja": "\u56fd\u571f\u6570\u5024\u60c5\u5831\uff08\u516c\u5171\u65bd\u8a2d\u30c7\u30fc\u30bf\uff09\u5e73\u621019\u5e74\u3000\u56fd\u571f\u4ea4\u901a\u7701", "source": "KSJ2", "source_ref": "http://nlftp.mlit.go.jp/ksj/jpgis/datalist/KsjTmplt-P02-v2_0.html", "wikidata": "Q11581679"}}, {"type": "node", "id": 1420790524, "lat": 35.641657, "lon": 139.692191, "tags": {"amenity": "police", "name": "\u76ee\u9ed2\u8b66\u5bdf\u7f72\u4e0a\u76ee\u9ed2\u56db\u4e01\u76ee\u4ea4\u756a", "note": "National-Land Numerical Information (Public Facility) 2006, MLIT Japan", "source": "KSJ2", "source_ref": "http://nlftp.mlit.go.jp/ksj/jpgis/datalist/KsjTmplt-P02-v2_0.html"}}, {"type": "node", "id": 1420790526, "lat": 35.64421, "lon": 139.700026, "tags": {"amenity": "police", "name": "\u76ee\u9ed2\u8b66\u5bdf\u7f72\u4e2d\u76ee\u9ed2\u99c5\u524d\u4ea4\u756a", "note": "National-Land Numerical Information (Public Facility) 2006, MLIT Japan", "source": "KSJ2", "source_ref": "http://nlftp.mlit.go.jp/ksj/jpgis/datalist/KsjTmplt-P02-v2_0.html"}}, {"type": "node", "id": 1420790527, "lat": 35.63288, "lon": 139.687386, "tags": {"amenity": "police", "name": "\u76ee\u9ed2\u8b66\u5bdf\u7f72\u4e94\u672c\u6728\u4ea4\u756a", "note": "National-Land Numerical Information (Public Facility) 2006, MLIT Japan", "source": "KSJ2", "source_ref": "http://nlftp.mlit.go.jp/ksj/jpgis/datalist/KsjTmplt-P02-v2_0.html"}}, {"type": "node", "id": 1420790532, "lat": 35.6524337, "lon": 139.6878532, "tags": {"amenity": "police", "name": "\u76ee\u9ed2\u8b66\u5bdf\u7f72\u5927\u6a4b\u4ea4\u756a", "note": "National-Land Numerical Information (Public Facility) 2006, MLIT Japan", "source": "KSJ2", "source_ref": "http://nlftp.mlit.go.jp/ksj/jpgis/datalist/KsjTmplt-P02-v2_0.html"}}, {"type": "node", "id": 1420790543, "lat": 35.6447811, "lon": 139.6899532, "tags": {"addr:city": "Meguro-Ku", "addr:housenumber": "1-31-3", "addr:postcode": "153-0043", "addr:street": "Higashiyama", "amenity": "police", "name": "\u76ee\u9ed2\u8b66\u5bdf\u7f72\u5bbf\u5c71\u4ea4\u756a", "note": "National-Land Numerical Information (Public Facility) 2006, MLIT Japan", "source": "KSJ2", "source_ref": "http://nlftp.mlit.go.jp/ksj/jpgis/datalist/KsjTmplt-P02-v2_0.html"}}, {"type": "node", "id": 1420790544, "lat": 35.6307031, "lon": 139.701278, "tags": {"addr:city": "Meguro tokyo", "addr:housenumber": "4-26-6 Meguro", "addr:postcode": "153-0063", "amenity": "police", "name": "\u76ee\u9ed2\u8b66\u5bdf\u7f72\u6cb9\u9762\u4ea4\u756a", "note": "National-Land Numerical Information (Public Facility) 2006, MLIT Japan", "phone": "0337100110", "source": "KSJ2", "source_ref": "http://nlftp.mlit.go.jp/ksj/jpgis/datalist/KsjTmplt-P02-v2_0.html", "wheelchair": "limited"}}, {"type": "node", "id": 1420790560, "lat": 35.637574, "lon": 139.691274, "tags": {"amenity": "police", "name": "\u76ee\u9ed2\u8b66\u5bdf\u7f72\u7950\u5929\u5bfa\u99c5\u524d\u4ea4\u756a", "note": "National-Land Numerical Information (Public Facility) 2006, MLIT Japan", "source": "KSJ2", "source_ref": "http://nlftp.mlit.go.jp/ksj/jpgis/datalist/KsjTmplt-P02-v2_0.html"}}, {"type": "node", "id": 1420790570, "lat": 35.635157, "lon": 139.697857, "tags": {"amenity": "police", "name": "\u76ee\u9ed2\u8b66\u5bdf\u7f72\u8c37\u6238\u524d\u4ea4\u756a", "note": "National-Land Numerical Information (Public Facility) 2006, MLIT Japan", "source": "KSJ2", "source_ref": "http://nlftp.mlit.go.jp/ksj/jpgis/datalist/KsjTmplt-P02-v2_0.html"}}, {"type": "node", "id": 1420790579, "lat": 35.655905, "lon": 139.684719, "tags": {"amenity": "police", "name": "\u76ee\u9ed2\u8b66\u5bdf\u7f72\u99d2\u5834\u4e00\u4e01\u76ee\u99d0\u5728\u6240", "note": "National-Land Numerical Information (Public Facility) 2006, MLIT Japan", "source": "KSJ2", "source_ref": "http://nlftp.mlit.go.jp/ksj/jpgis/datalist/KsjTmplt-P02-v2_0.html"}}, {"type": "node", "id": 1420791036, "lat": 35.6207999, "lon": 139.6812445, "tags": {"amenity": "police", "name": "\u7891\u6587\u8c37\u8b66\u5bdf\u7f72", "note": "National-Land Numerical Information (Public Facility) 2006, MLIT Japan", "source": "KSJ2", "source_ref": "http://nlftp.mlit.go.jp/ksj/jpgis/datalist/KsjTmplt-P02-v2_0.html", "wikidata": "Q11587734"}}, {"type": "node", "id": 1420791039, "lat": 35.614826, "lon": 139.669888, "tags": {"amenity": "police", "name": "\u7891\u6587\u8c37\u8b66\u5bdf\u7f72\u4e2d\u6839\u4ea4\u756a", "note": "National-Land Numerical Information (Public Facility) 2006, MLIT Japan", "source": "KSJ2", "source_ref": "http://nlftp.mlit.go.jp/ksj/jpgis/datalist/KsjTmplt-P02-v2_0.html"}}, {"type": "node", "id": 1420791051, "lat": 35.6151235, "lon": 139.6915039, "tags": {"amenity": "police", "name": "\u7891\u6587\u8c37\u8b66\u5bdf\u7f72 \u539f\u753a\u4ea4\u756a", "note": "National-Land Numerical Information (Public Facility) 2006, MLIT Japan", "source": "KSJ2", "source_ref": "http://nlftp.mlit.go.jp/ksj/jpgis/datalist/KsjTmplt-P02-v2_0.html"}}, {"type": "node", "id": 1420791054, "lat": 35.6288802, "lon": 139.6852299, "tags": {"amenity": "police", "name": "\u7891\u6587\u8c37\u8b66\u5bdf\u7f72\u5b66\u82b8\u5927\u5b66\u99c5\u524d\u4ea4\u756a", "note": "National-Land Numerical Information (Public Facility) 2006, MLIT Japan", "source": "KSJ2", "source_ref": "http://nlftp.mlit.go.jp/ksj/jpgis/datalist/KsjTmplt-P02-v2_0.html"}}, {"type": "node", "id": 1420791055, "lat": 35.627492, "lon": 139.693219, "tags": {"amenity": "police", "name": "\u7891\u6587\u8c37\u8b66\u5bdf\u7f72\u672c\u753a\u4e8c\u4e01\u76ee\u4ea4\u756a", "note": "National-Land Numerical Information (Public Facility) 2006, MLIT Japan", "source": "KSJ2", "source_ref": "http://nlftp.mlit.go.jp/ksj/jpgis/datalist/KsjTmplt-P02-v2_0.html", "wheelchair": "yes"}}, {"type": "node", "id": 1420791063, "lat": 35.6210918, "lon": 139.7010191, "tags": {"amenity": "police", "name": "\u7891\u6587\u8c37\u8b66\u5bdf\u7f72\u672c\u753a\u4e94\u4e01\u76ee\u4ea4\u756a", "note": "National-Land Numerical Information (Public Facility) 2006, MLIT Japan", "source": "KSJ2", "source_ref": "http://nlftp.mlit.go.jp/ksj/jpgis/datalist/KsjTmplt-P02-v2_0.html"}}, {"type": "node", "id": 1420791068, "lat": 35.6206182, "lon": 139.6931488, "tags": {"amenity": "police", "name": "\u7891\u6587\u8c37\u8b66\u5bdf\u7f72 \u672c\u753a\u516d\u4e01\u76ee\u4ea4\u756a", "note": "National-Land Numerical Information (Public Facility) 2006, MLIT Japan", "source": "KSJ2", "source_ref": "http://nlftp.mlit.go.jp/ksj/jpgis/datalist/KsjTmplt-P02-v2_0.html"}}, {"type": "node", "id": 1420791073, "lat": 35.6287205, "lon": 139.6665165, "tags": {"amenity": "police", "name": "\u7891\u6587\u8c37\u8b66\u5bdf\u7f72 \u6771\u304c\u4e18\u99d0\u5728\u6240", "note": "National-Land Numerical Information (Public Facility) 2006, MLIT Japan", "source": "KSJ2", "source_ref": "http://nlftp.mlit.go.jp/ksj/jpgis/datalist/KsjTmplt-P02-v2_0.html"}}, {"type": "node", "id": 1420791076, "lat": 35.6260088, "lon": 139.6703183, "tags": {"amenity": "police", "name": "\u7891\u6587\u8c37\u8b66\u5bdf\u7f72\u67ff\u306e\u6728\u5742\u4ea4\u756a", "note": "National-Land Numerical Information (Public Facility) 2006, MLIT Japan", "source": "KSJ2", "source_ref": "http://nlftp.mlit.go.jp/ksj/jpgis/datalist/KsjTmplt-P02-v2_0.html"}}, {"type": "node", "id": 1420791083, "lat": 35.622771, "lon": 139.683913, "tags": {"amenity": "police", "name": "\u7891\u6587\u8c37\u8b66\u5bdf\u7f72\u7891\u6587\u8c37\u4e94\u4e01\u76ee\u4ea4\u756a", "note": "National-Land Numerical Information (Public Facility) 2006, MLIT Japan", "source": "KSJ2", "source_ref": "http://nlftp.mlit.go.jp/ksj/jpgis/datalist/KsjTmplt-P02-v2_0.html"}}, {"type": "node", "id": 1420791085, "lat": 35.6076625, "lon": 139.6686316, "tags": {"KSJ2:ADS": "\u81ea\u7531\u304c\u4e181-30-2", "KSJ2:AdminArea": "\u6771\u4eac\u90fd\u76ee\u9ed2\u533a", "KSJ2:PubFacAdmin": "\u90fd\u9053\u5e9c\u770c", "amenity": "police", "name": "\u7891\u6587\u8c37\u8b66\u5bdf\u7f72\u81ea\u7531\u304c\u4e18\u4ea4\u756a", "note": "National-Land Numerical Information (Public Facility) 2006, MLIT Japan", "note:ja": "\u56fd\u571f\u6570\u5024\u60c5\u5831\uff08\u516c\u5171\u65bd\u8a2d\u30c7\u30fc\u30bf\uff09\u5e73\u621019\u5e74\u3000\u56fd\u571f\u4ea4\u901a\u7701", "source": "KSJ2", "source_ref": "http://nlftp.mlit.go.jp/ksj/jpgis/datalist/KsjTmplt-P02-v2_0.html"}}, {"type": "node", "id": 1420791086, "lat": 35.617937, "lon": 139.675582, "tags": {"amenity": "police", "name": "\u7891\u6587\u8c37\u8b66\u5bdf\u7f72\u90fd\u7acb\u5927\u5b66\u99c5\u524d\u4ea4\u756a", "note": "National-Land Numerical Information (Public Facility) 2006, MLIT Japan", "source": "KSJ2", "source_ref": "http://nlftp.mlit.go.jp/ksj/jpgis/datalist/KsjTmplt-P02-v2_0.html"}}, {"type": "node", "id": 1420795733, "lat": 35.653502, "lon": 139.68385, "tags": {"amenity": "police", "name": "\u7b2c\u4e09\u65b9\u9762\u672c\u90e8", "name:en": "The Third District Headquarters", "note": "National-Land Numerical Information (Public Facility) 2006, MLIT Japan", "source": "KSJ2", "source_ref": "http://nlftp.mlit.go.jp/ksj/jpgis/datalist/KsjTmplt-P02-v2_0.html"}}, {"type": "node", "id": 1420796595, "lat": 35.6120519, "lon": 139.7062293, "tags": {"KSJ2:ADS": "\u834f\u539f6-19-10", "KSJ2:AdminArea": "\u6771\u4eac\u90fd\u54c1\u5ddd\u533a", "KSJ2:PubFacAdmin": "\u90fd\u9053\u5e9c\u770c", "amenity": "police", "name": "\u834f\u539f\u8b66\u5bdf\u7f72", "note": "National-Land Numerical Information (Public Facility) 2006, MLIT Japan", "note:ja": "\u56fd\u571f\u6570\u5024\u60c5\u5831\uff08\u516c\u5171\u65bd\u8a2d\u30c7\u30fc\u30bf\uff09\u5e73\u621019\u5e74\u3000\u56fd\u571f\u4ea4\u901a\u7701", "source": "KSJ2", "source_ref": "http://nlftp.mlit.go.jp/ksj/jpgis/datalist/KsjTmplt-P02-v2_0.html", "wikidata": "Q11618311"}}, {"type": "node", "id": 1420796598, "lat": 35.6152025, "lon": 139.7090036, "tags": {"amenity": "police", "name": "\u834f\u539f\u8b66\u5bdf\u7f72\u5e73\u585a\u6a4b\u4ea4\u756a", "note": "National-Land Numerical Information (Public Facility) 2006, MLIT Japan", "source": "KSJ2", "source_ref": "http://nlftp.mlit.go.jp/ksj/jpgis/datalist/KsjTmplt-P02-v2_0.html"}}, {"type": "node", "id": 1420796600, "lat": 35.6053369, "lon": 139.7000221, "tags": {"amenity": "police", "name": "\u834f\u539f\u8b66\u5bdf\u7f72\u65d7\u306e\u53f0\u4ea4\u756a", "note": "National-Land Numerical Information (Public Facility) 2006, MLIT Japan", "note:ja": "\u56fd\u571f\u6570\u5024\u60c5\u5831\uff08\u516c\u5171\u65bd\u8a2d\u30c7\u30fc\u30bf\uff09\u5e73\u621019\u5e74\u3000\u56fd\u571f\u4ea4\u901a\u7701", "source": "KSJ2", "source_ref": "http://nlftp.mlit.go.jp/ksj/jpgis/datalist/KsjTmplt-P02-v2_0.html"}}, {"type": "node", "id": 1420796601, "lat": 35.6196516, "lon": 139.7029386, "tags": {"addr:block_number": "2", "addr:city": "\u54c1\u5ddd\u533a", "addr:housenumber": "1", "addr:neighbourhood": "4", "addr:postcode": "142-0062", "addr:province": "\u6771\u4eac\u90fd", "addr:suburb": "\u5c0f\u5c71", "amenity": "police", "name": "\u834f\u539f\u8b66\u5bdf\u7f72\u6b66\u8535\u5c0f\u5c71\u4ea4\u756a", "note": "\u4ea4\u756a\u4ed8\u8fd1\u306f\u3001\u56fd\u905326\u53f7\u7dda\u306b\u9762\u3057\u3066\u3088\u308a\u30d1\u30eb\u30e0\u5546\u5e97\u8857\u3068\u4f4f\u5b85\u8857\u304c\u4f4f\u5b85\u304c\u6df7\u5728\u3057\u3066\u3044\u307e\u3059\u3002\u8fd1\u304f\u306b\u6b66\u8535\u5c0f\u5c71\u99c5\u304c\u3042\u308a\u3001\u4e57\u964d\u5ba2\u3082\u591a\u304f\u3001\u6d3b\u6c17\u304c\u3042\u308a\u307e\u3059\u3002\u307e\u305f800\u30e1\u30fc\u30c8\u30eb\u306e\u30a2\u30fc\u30b1\u30fc\u30c9\u304c\u3042\u308a\u3001\u30b0\u30eb\u30e1\u756a\u7d44\u7b49\u306e\u64ae\u5f71\u3067\u82b8\u80fd\u4eba\u304c\u6765\u308b\u3053\u3068\u3082\u3042\u308a\u307e\u3059\u3002", "operator": "\u834f\u539f\u8b66\u5bdf\u7f72", "phone": "03-3781-0110", "source": "KSJ2", "wheelchair": "yes"}}, {"type": "node", "id": 1420796602, "lat": 35.6122273, "lon": 139.700573, "tags": {"amenity": "police", "name": "\u834f\u539f\u8b66\u5bdf\u7f72 \u6c5f\u6238\u898b\u5742\u4ea4\u756a", "note": "National-Land Numerical Information (Public Facility) 2006, MLIT Japan", "note:ja": "\u56fd\u571f\u6570\u5024\u60c5\u5831\uff08\u516c\u5171\u65bd\u8a2d\u30c7\u30fc\u30bf\uff09\u5e73\u621019\u5e74\u3000\u56fd\u571f\u4ea4\u901a\u7701", "source": "KSJ2", "source_ref": "http://nlftp.mlit.go.jp/ksj/jpgis/datalist/KsjTmplt-P02-v2_0.html", "wheelchair": "no"}}, {"type": "node", "id": 1420796603, "lat": 35.608244, "lon": 139.696858, "tags": {"KSJ2:ADS": "\u65d7\u306e\u53f06-5-56", "KSJ2:AdminArea": "\u6771\u4eac\u90fd\u54c1\u5ddd\u533a", "KSJ2:PubFacAdmin": "\u90fd\u9053\u5e9c\u770c", "amenity": "police", "name": "\u834f\u539f\u8b66\u5bdf\u7f72\u6d17\u8db3\u99d0\u5728\u6240", "note": "National-Land Numerical Information (Public Facility) 2006, MLIT Japan", "note:ja": "\u56fd\u571f\u6570\u5024\u60c5\u5831\uff08\u516c\u5171\u65bd\u8a2d\u30c7\u30fc\u30bf\uff09\u5e73\u621019\u5e74\u3000\u56fd\u571f\u4ea4\u901a\u7701", "source": "KSJ2", "source_ref": "http://nlftp.mlit.go.jp/ksj/jpgis/datalist/KsjTmplt-P02-v2_0.html"}}, {"type": "node", "id": 1420797998, "lat": 35.6530252, "lon": 139.5621849, "tags": {"amenity": "police", "name": "\u8abf\u5e03\u8b66\u5bdf\u7f72", "name:en": "Chofu Police Station", "note": "National-Land Numerical Information (Public Facility) 2006, MLIT Japan", "note:ja": "\u56fd\u571f\u6570\u5024\u60c5\u5831\uff08\u516c\u5171\u65bd\u8a2d\u30c7\u30fc\u30bf\uff09\u5e73\u621019\u5e74\u3000\u56fd\u571f\u4ea4\u901a\u7701", "source": "KSJ2", "source_ref": "http://nlftp.mlit.go.jp/ksj/jpgis/datalist/KsjTmplt-P02-v2_0.html", "wikidata": "Q11631757"}}, {"type": "node", "id": 1420797999, "lat": 35.6592919, "lon": 139.5743251, "tags": {"amenity": "police", "name": "\u8abf\u5e03\u8b66\u5bdf\u7f72\u3064\u3064\u3058\u304c\u4e18\u99c5\u524d\u4ea4\u756a", "note": "National-Land Numerical Information (Public Facility) 2006, MLIT Japan", "note:ja": "\u56fd\u571f\u6570\u5024\u60c5\u5831\uff08\u516c\u5171\u65bd\u8a2d\u30c7\u30fc\u30bf\uff09\u5e73\u621019\u5e74\u3000\u56fd\u571f\u4ea4\u901a\u7701", "source": "KSJ2", "source_ref": "http://nlftp.mlit.go.jp/ksj/jpgis/datalist/KsjTmplt-P02-v2_0.html"}}, {"type": "node", "id": 1420798000, "lat": 35.658762, "lon": 139.530426, "tags": {"KSJ2:ADS": "\u4e0a\u77f3\u539f1-29-5", "KSJ2:AdminArea": "\u6771\u4eac\u90fd\u8abf\u5e03\u5e02", "KSJ2:PubFacAdmin": "\u90fd\u9053\u5e9c\u770c", "amenity": "police", "name": "\u8abf\u5e03\u8b66\u5bdf\u7f72\u4e0a\u77f3\u539f\u4ea4\u756a", "name:ja": "\u8abf\u5e03\u8b66\u5bdf\u7f72\u4e0a\u77f3\u539f\u4ea4\u756a", "note": "National-Land Numerical Information (Public Facility) 2006, MLIT Japan", "note:ja": "\u56fd\u571f\u6570\u5024\u60c5\u5831\uff08\u516c\u5171\u65bd\u8a2d\u30c7\u30fc\u30bf\uff09\u5e73\u621019\u5e74\u3000\u56fd\u571f\u4ea4\u901a\u7701", "source": "KSJ2", "source_ref": "http://nlftp.mlit.go.jp/ksj/jpgis/datalist/KsjTmplt-P02-v2_0.html"}}, {"type": "node", "id": 1420798002, "lat": 35.638876, "lon": 139.569007, "tags": {"amenity": "police", "name": "\u8abf\u5e03\u8b66\u5bdf\u7f72\u4e2d\u548c\u6cc9\u4ea4\u756a", "note": "National-Land Numerical Information (Public Facility) 2006, MLIT Japan", "note:ja": "\u56fd\u571f\u6570\u5024\u60c5\u5831\uff08\u516c\u5171\u65bd\u8a2d\u30c7\u30fc\u30bf\uff09\u5e73\u621019\u5e74\u3000\u56fd\u571f\u4ea4\u901a\u7701", "source": "KSJ2"}}, {"type": "node", "id": 1420798004, "lat": 35.644515, "lon": 139.536816, "tags": {"KSJ2:ADS": "\u591a\u6469\u5ddd4-40-1", "KSJ2:AdminArea": "\u6771\u4eac\u90fd\u8abf\u5e03\u5e02", "KSJ2:PubFacAdmin": "\u90fd\u9053\u5e9c\u770c", "amenity": "police", "name": "\u8abf\u5e03\u8b66\u5bdf\u7f72\u4eac\u738b\u591a\u6469\u5ddd\u99c5\u524d\u4ea4\u756a", "note": "National-Land Numerical Information (Public Facility) 2006, MLIT Japan", "note:ja": "\u56fd\u571f\u6570\u5024\u60c5\u5831\uff08\u516c\u5171\u65bd\u8a2d\u30c7\u30fc\u30bf\uff09\u5e73\u621019\u5e74\u3000\u56fd\u571f\u4ea4\u901a\u7701", "source": "KSJ2", "source_ref": "http://nlftp.mlit.go.jp/ksj/jpgis/datalist/KsjTmplt-P02-v2_0.html"}}, {"type": "node", "id": 1420798007, "lat": 35.6505877, "lon": 139.5573257, "tags": {"KSJ2:ADS": "\u56fd\u9818\u753a2-5-15", "KSJ2:AdminArea": "\u6771\u4eac\u90fd\u8abf\u5e03\u5e02", "KSJ2:PubFacAdmin": "\u90fd\u9053\u5e9c\u770c", "amenity": "police", "name": "\u8abf\u5e03\u8b66\u5bdf\u7f72\u56fd\u9818\u4ea4\u756a", "note": "National-Land Numerical Information (Public Facility) 2006, MLIT Japan", "note:ja": "\u56fd\u571f\u6570\u5024\u60c5\u5831\uff08\u516c\u5171\u65bd\u8a2d\u30c7\u30fc\u30bf\uff09\u5e73\u621019\u5e74\u3000\u56fd\u571f\u4ea4\u901a\u7701", "police": "box", "source": "survey; KSJ2", "source_ref": "http://nlftp.mlit.go.jp/ksj/jpgis/datalist/KsjTmplt-P02-v2_0.html"}}, {"type": "node", "id": 1420798008, "lat": 35.6396581, "lon": 139.5599114, "tags": {"amenity": "police", "name": "\u8abf\u5e03\u8b66\u5bdf\u7f72\u591a\u6469\u5ddd\u4f4f\u5b85\u4ea4\u756a", "note": "National-Land Numerical Information (Public Facility) 2006, MLIT Japan", "note:ja": "\u56fd\u571f\u6570\u5024\u60c5\u5831\uff08\u516c\u5171\u65bd\u8a2d\u30c7\u30fc\u30bf\uff09\u5e73\u621019\u5e74\u3000\u56fd\u571f\u4ea4\u901a\u7701", "police": "box", "source": "KSJ2", "source_ref": "http://nlftp.mlit.go.jp/ksj/jpgis/datalist/KsjTmplt-P02-v2_0.html"}}, {"type": "node", "id": 1420798010, "lat": 35.6465496, "lon": 139.5781455, "tags": {"amenity": "police", "name": "\u8abf\u5e03\u8b66\u5bdf\u7f72\u5c0f\u899a\u4ea4\u756a", "note": "National-Land Numerical Information (Public Facility) 2006, MLIT Japan", "note:ja": "\u56fd\u571f\u6570\u5024\u60c5\u5831\uff08\u516c\u5171\u65bd\u8a2d\u30c7\u30fc\u30bf\uff09\u5e73\u621019\u5e74\u3000\u56fd\u571f\u4ea4\u901a\u7701", "source": "KSJ2", "source_ref": "http://nlftp.mlit.go.jp/ksj/jpgis/datalist/KsjTmplt-P02-v2_0.html"}}, {"type": "node", "id": 1420798012, "lat": 35.6470197, "lon": 139.5484284, "tags": {"amenity": "police", "name": "\u8abf\u5e03\u8b66\u5bdf\u7f72\u5e03\u7530\u4ea4\u756a", "note": "National-Land Numerical Information (Public Facility) 2006, MLIT Japan", "note:ja": "\u56fd\u571f\u6570\u5024\u60c5\u5831\uff08\u516c\u5171\u65bd\u8a2d\u30c7\u30fc\u30bf\uff09\u5e73\u621019\u5e74\u3000\u56fd\u571f\u4ea4\u901a\u7701", "source": "KSJ2", "source_ref": "http://nlftp.mlit.go.jp/ksj/jpgis/datalist/KsjTmplt-P02-v2_0.html"}}, {"type": "node", "id": 1420798016, "lat": 35.6241116, "lon": 139.582007, "tags": {"amenity": "police", "name": "\u8abf\u5e03\u8b66\u5bdf\u7f72\u732a\u65b9\u4ea4\u756a", "note": "National-Land Numerical Information (Public Facility) 2006, MLIT Japan", "note:ja": "\u56fd\u571f\u6570\u5024\u60c5\u5831\uff08\u516c\u5171\u65bd\u8a2d\u30c7\u30fc\u30bf\uff09\u5e73\u621019\u5e74\u3000\u56fd\u571f\u4ea4\u901a\u7701", "source": "KSJ2"}}, {"type": "node", "id": 1420798019, "lat": 35.6603264, "lon": 139.5234283, "tags": {"KSJ2:ADS": "\u98db\u7530\u7d661-42", "KSJ2:AdminArea": "\u6771\u4eac\u90fd\u8abf\u5e03\u5e02", "KSJ2:PubFacAdmin": "\u90fd\u9053\u5e9c\u770c", "amenity": "police", "name": "\u8abf\u5e03\u8b66\u5bdf\u7f72\u98db\u7530\u7d66\u99c5\u524d\u4ea4\u756a", "note": "National-Land Numerical Information (Public Facility) 2006, MLIT Japan", "note:ja": "\u56fd\u571f\u6570\u5024\u60c5\u5831\uff08\u516c\u5171\u65bd\u8a2d\u30c7\u30fc\u30bf\uff09\u5e73\u621019\u5e74\u3000\u56fd\u571f\u4ea4\u901a\u7701", "source": "KSJ2", "source_ref": "http://nlftp.mlit.go.jp/ksj/jpgis/datalist/KsjTmplt-P02-v2_0.html"}}, {"type": "node", "id": 1420813631, "lat": 35.573814, "lon": 139.638657, "tags": {"KSJ2:ADS": "\u4e0b\u5c0f\u7530\u4e2d6-6-11", "KSJ2:AdminArea": "\u795e\u5948\u5ddd\u770c\u5ddd\u5d0e\u5e02\u4e2d\u539f\u533a", "KSJ2:PubFacAdmin": "\u90fd\u9053\u5e9c\u770c", "amenity": "police", "name": "\u4e2d\u539f\u8b66\u5bdf\u7f72\u4e0b\u5c0f\u7530\u4e2d\u4ea4\u756a", "note": "National-Land Numerical Information (Public Facility) 2006, MLIT Japan", "note:ja": "\u56fd\u571f\u6570\u5024\u60c5\u5831\uff08\u516c\u5171\u65bd\u8a2d\u30c7\u30fc\u30bf\uff09\u5e73\u621019\u5e74\u3000\u56fd\u571f\u4ea4\u901a\u7701", "source": "KSJ2", "source_ref": "http://nlftp.mlit.go.jp/ksj/jpgis/datalist/KsjTmplt-P02-v2_0.html"}}, {"type": "node", "id": 1420813632, "lat": 35.568794, "lon": 139.669957, "tags": {"KSJ2:ADS": "\u4e2d\u4e38\u5b50365-7", "KSJ2:AdminArea": "\u795e\u5948\u5ddd\u770c\u5ddd\u5d0e\u5e02\u4e2d\u539f\u533a", "KSJ2:PubFacAdmin": "\u90fd\u9053\u5e9c\u770c", "amenity": "police", "name": "\u4e2d\u539f\u8b66\u5bdf\u7f72\u4e2d\u4e38\u5b50\u4ea4\u756a", "note": "National-Land Numerical Information (Public Facility) 2006, MLIT Japan", "note:ja": "\u56fd\u571f\u6570\u5024\u60c5\u5831\uff08\u516c\u5171\u65bd\u8a2d\u30c7\u30fc\u30bf\uff09\u5e73\u621019\u5e74\u3000\u56fd\u571f\u4ea4\u901a\u7701", "source": "KSJ2", "source_ref": "http://nlftp.mlit.go.jp/ksj/jpgis/datalist/KsjTmplt-P02-v2_0.html"}}, {"type": "node", "id": 1420813640, "lat": 35.5832664, "lon": 139.6648733, "tags": {"amenity": "police", "name": "\u4e2d\u539f\u8b66\u5bdf\u7f72\u4e38\u5b50\u6a4b\u4ea4\u756a", "note": "National-Land Numerical Information (Public Facility) 2006, MLIT Japan", "note:ja": "\u56fd\u571f\u6570\u5024\u60c5\u5831\uff08\u516c\u5171\u65bd\u8a2d\u30c7\u30fc\u30bf\uff09\u5e73\u621019\u5e74\u3000\u56fd\u571f\u4ea4\u901a\u7701", "source": "KSJ2", "source_ref": "http://nlftp.mlit.go.jp/ksj/jpgis/datalist/KsjTmplt-P02-v2_0.html"}}, {"type": "node", "id": 1420813660, "lat": 35.582664, "lon": 139.650475, "tags": {"amenity": "police", "name": "\u4e2d\u539f\u8b66\u5bdf\u7f72\u5c0f\u6749\u4ea4\u756a", "source": "KSJ2"}}, {"type": "node", "id": 1420813685, "lat": 35.5867786, "lon": 139.6306019, "tags": {"amenity": "police", "name": "\u4e2d\u539f\u8b66\u5bdf\u7f72\u6b66\u8535\u65b0\u57ce\u99c5\u524d\u4ea4\u756a", "source": "KSJ2"}}, {"type": "node", "id": 1420816282, "lat": 35.6174046, "lon": 139.558359, "tags": {"amenity": "police", "name": "\u591a\u6469\u8b66\u5bdf\u7f72", "note": "National-Land Numerical Information (Public Facility) 2006, MLIT Japan", "note:ja": "\u56fd\u571f\u6570\u5024\u60c5\u5831\uff08\u516c\u5171\u65bd\u8a2d\u30c7\u30fc\u30bf\uff09\u5e73\u621019\u5e74\u3000\u56fd\u571f\u4ea4\u901a\u7701", "source": "KSJ2", "source_ref": "http://nlftp.mlit.go.jp/ksj/jpgis/datalist/KsjTmplt-P02-v2_0.html", "wheelchair": "no", "wikidata": "Q11430788", "wikipedia": "ja:\u591a\u6469\u8b66\u5bdf\u7f72"}}, {"type": "node", "id": 1420816283, "lat": 35.6166351, "lon": 139.563965, "tags": {"amenity": "police", "name": "\u591a\u6469\u8b66\u5bdf\u7f72\u5411\u30f6\u4e18\u904a\u5712\u99c5\u524d\u4ea4\u756a", "note": "National-Land Numerical Information (Public Facility) 2006, MLIT Japan", "note:ja": "\u56fd\u571f\u6570\u5024\u60c5\u5831\uff08\u516c\u5171\u65bd\u8a2d\u30c7\u30fc\u30bf\uff09\u5e73\u621019\u5e74\u3000\u56fd\u571f\u4ea4\u901a\u7701", "source": "KSJ2"}}, {"type": "node", "id": 1420816285, "lat": 35.6139057, "lon": 139.5915119, "tags": {"amenity": "police", "name": "\u591a\u6469\u8b66\u5bdf\u7f72\u5830\u4ea4\u756a", "name:en": "Koban", "note:ja": "\u56fd\u571f\u6570\u5024\u60c5\u5831\uff08\u516c\u5171\u65bd\u8a2d\u30c7\u30fc\u30bf\uff09\u5e73\u621019\u5e74\u3000\u56fd\u571f\u4ea4\u901a\u7701", "source": "survey", "source_ref": "http://nlftp.mlit.go.jp/ksj/jpgis/datalist/KsjTmplt-P02-v2_0.html"}}, {"type": "node", "id": 1420816288, "lat": 35.6163936, "lon": 139.5452798, "tags": {"amenity": "police", "name": "Tama Police Ikuta Koban", "name:ja": "\u591a\u6469\u8b66\u5bdf\u7f72\u751f\u7530\u4ea4\u756a", "note": "National-Land Numerical Information (Public Facility) 2006, MLIT Japan", "note:ja": "\u56fd\u571f\u6570\u5024\u60c5\u5831\uff08\u516c\u5171\u65bd\u8a2d\u30c7\u30fc\u30bf\uff09\u5e73\u621019\u5e74\u3000\u56fd\u571f\u4ea4\u901a\u7701", "source": "KSJ2", "source_ref": "http://nlftp.mlit.go.jp/ksj/jpgis/datalist/KsjTmplt-P02-v2_0.html"}}, {"type": "node", "id": 1420816291, "lat": 35.6204726, "lon": 139.5703524, "tags": {"amenity": "police", "name": "\u591a\u6469\u8b66\u5bdf\u7f72\u767b\u6238\u99c5\u524d\u4ea4\u756a", "note": "National-Land Numerical Information (Public Facility) 2006, MLIT Japan", "note:ja": "\u56fd\u571f\u6570\u5024\u60c5\u5831\uff08\u516c\u5171\u65bd\u8a2d\u30c7\u30fc\u30bf\uff09\u5e73\u621019\u5e74\u3000\u56fd\u571f\u4ea4\u901a\u7701", "source": "KSJ2"}}, {"type": "node", "id": 1420816297, "lat": 35.6323387, "lon": 139.5336427, "tags": {"amenity": "police", "name": "\u591a\u6469\u8b66\u5bdf\u7f72\u83c5\u4ea4\u756a", "note": "National-Land Numerical Information (Public Facility) 2006, MLIT Japan", "note:ja": "\u56fd\u571f\u6570\u5024\u60c5\u5831\uff08\u516c\u5171\u65bd\u8a2d\u30c7\u30fc\u30bf\uff09\u5e73\u621019\u5e74\u3000\u56fd\u571f\u4ea4\u901a\u7701", "source": "KSJ2", "source_ref": "http://nlftp.mlit.go.jp/ksj/jpgis/datalist/KsjTmplt-P02-v2_0.html"}}, {"type": "node", "id": 1420816300, "lat": 35.6243003, "lon": 139.5309529, "tags": {"amenity": "police", "name": "\u591a\u6469\u8b66\u5bdf\u7f72\u83c5\u661f\u30f6\u4e18\u4ea4\u756a", "note": "National-Land Numerical Information (Public Facility) 2006, MLIT Japan", "note:ja": "\u56fd\u571f\u6570\u5024\u60c5\u5831\uff08\u516c\u5171\u65bd\u8a2d\u30c7\u30fc\u30bf\uff09\u5e73\u621019\u5e74\u3000\u56fd\u571f\u4ea4\u901a\u7701", "source": "KSJ2", "source_ref": "http://nlftp.mlit.go.jp/ksj/jpgis/datalist/KsjTmplt-P02-v2_0.html"}}, {"type": "node", "id": 1420816308, "lat": 35.6008726, "lon": 139.5398567, "tags": {"amenity": "police", "name": "\u591a\u6469\u8b66\u5bdf\u7f72\u9577\u6ca2\u4ea4\u756a", "note": "National-Land Numerical Information (Public Facility) 2006, MLIT Japan", "note:ja": "\u56fd\u571f\u6570\u5024\u60c5\u5831\uff08\u516c\u5171\u65bd\u8a2d\u30c7\u30fc\u30bf\uff09\u5e73\u621019\u5e74\u3000\u56fd\u571f\u4ea4\u901a\u7701", "source": "KSJ2", "source_ref": "http://nlftp.mlit.go.jp/ksj/jpgis/datalist/KsjTmplt-P02-v2_0.html"}}, {"type": "node", "id": 1420816745, "lat": 35.588663, "lon": 139.579038, "tags": {"amenity": "police", "name": "\u5bae\u524d\u8b66\u5bdf\u7f72", "note": "National-Land Numerical Information (Public Facility) 2006, MLIT Japan", "note:ja": "\u56fd\u571f\u6570\u5024\u60c5\u5831\uff08\u516c\u5171\u65bd\u8a2d\u30c7\u30fc\u30bf\uff09\u5e73\u621019\u5e74\u3000\u56fd\u571f\u4ea4\u901a\u7701", "source_ref": "http://nlftp.mlit.go.jp/ksj/jpgis/datalist/KsjTmplt-P02-v2_0.html", "wikidata": "Q11453375", "wikipedia": "ja:\u5bae\u524d\u8b66\u5bdf\u7f72"}}, {"type": "node", "id": 1420816748, "lat": 35.587246, "lon": 139.573455, "tags": {"amenity": "police", "name": "\u5bae\u524d\u8b66\u5bdf\u7f72\u571f\u6a4b\u9023\u7d61\u6240", "note": "National-Land Numerical Information (Public Facility) 2006, MLIT Japan", "note:ja": "\u56fd\u571f\u6570\u5024\u60c5\u5831\uff08\u516c\u5171\u65bd\u8a2d\u30c7\u30fc\u30bf\uff09\u5e73\u621019\u5e74\u3000\u56fd\u571f\u4ea4\u901a\u7701", "source_ref": "http://nlftp.mlit.go.jp/ksj/jpgis/datalist/KsjTmplt-P02-v2_0.html"}}, {"type": "node", "id": 1420816752, "lat": 35.59385, "lon": 139.576991, "tags": {"amenity": "police", "name": "\u5bae\u524d\u8b66\u5bdf\u7f72\u5bae\u524d\u5e73\u9023\u7d61\u6240", "note": "National-Land Numerical Information (Public Facility) 2006, MLIT Japan", "note:ja": "\u56fd\u571f\u6570\u5024\u60c5\u5831\uff08\u516c\u5171\u65bd\u8a2d\u30c7\u30fc\u30bf\uff09\u5e73\u621019\u5e74\u3000\u56fd\u571f\u4ea4\u901a\u7701", "source_ref": "http://nlftp.mlit.go.jp/ksj/jpgis/datalist/KsjTmplt-P02-v2_0.html"}}, {"type": "node", "id": 1420816756, "lat": 35.585018, "lon": 139.581728, "tags": {"amenity": "police", "name": "\u5bae\u524d\u8b66\u5bdf\u7f72\u5bae\u524d\u5e73\u99c5\u524d\u4ea4\u756a", "note": "National-Land Numerical Information (Public Facility) 2006, MLIT Japan", "note:ja": "\u56fd\u571f\u6570\u5024\u60c5\u5831\uff08\u516c\u5171\u65bd\u8a2d\u30c7\u30fc\u30bf\uff09\u5e73\u621019\u5e74\u3000\u56fd\u571f\u4ea4\u901a\u7701", "source_ref": "http://nlftp.mlit.go.jp/ksj/jpgis/datalist/KsjTmplt-P02-v2_0.html"}}, {"type": "node", "id": 1420816759, "lat": 35.5714445, "lon": 139.5802824, "tags": {"amenity": "police", "name": "\u5bae\u524d\u8b66\u5bdf\u7f72 \u6709\u99ac\u4ea4\u756a", "note": "National-Land Numerical Information (Public Facility) 2006, MLIT Japan", "note:ja": "\u56fd\u571f\u6570\u5024\u60c5\u5831\uff08\u516c\u5171\u65bd\u8a2d\u30c7\u30fc\u30bf\uff09\u5e73\u621019\u5e74\u3000\u56fd\u571f\u4ea4\u901a\u7701", "source": "KSJ2", "source_ref": "http://nlftp.mlit.go.jp/ksj/jpgis/datalist/KsjTmplt-P02-v2_0.html"}}, {"type": "node", "id": 1420816763, "lat": 35.6012866, "lon": 139.5833509, "tags": {"amenity": "police", "name": "\u5bae\u524d\u8b66\u5bdf\u7f72\u795e\u6728\u4ea4\u756a", "note": "National-Land Numerical Information (Public Facility) 2006, MLIT Japan", "note:ja": "\u56fd\u571f\u6570\u5024\u60c5\u5831\uff08\u516c\u5171\u65bd\u8a2d\u30c7\u30fc\u30bf\uff09\u5e73\u621019\u5e74\u3000\u56fd\u571f\u4ea4\u901a\u7701", "source": "KSJ2", "source_ref": "http://nlftp.mlit.go.jp/ksj/jpgis/datalist/KsjTmplt-P02-v2_0.html"}}, {"type": "node", "id": 1420816769, "lat": 35.5956575, "lon": 139.5549968, "tags": {"amenity": "police", "name": "\u5bae\u524d\u8b66\u5bdf\u7f72\u8535\u6577\u4ea4\u756a", "note": "National-Land Numerical Information (Public Facility) 2006, MLIT Japan", "note:ja": "\u56fd\u571f\u6570\u5024\u60c5\u5831\uff08\u516c\u5171\u65bd\u8a2d\u30c7\u30fc\u30bf\uff09\u5e73\u621019\u5e74\u3000\u56fd\u571f\u4ea4\u901a\u7701", "source_ref": "http://nlftp.mlit.go.jp/ksj/jpgis/datalist/KsjTmplt-P02-v2_0.html"}}, {"type": "node", "id": 1420816770, "lat": 35.573694, "lon": 139.610758, "tags": {"KSJ2:ADS": "\u91ce\u5ddd1098-1", "KSJ2:AdminArea": "\u795e\u5948\u5ddd\u770c\u5ddd\u5d0e\u5e02\u5bae\u524d\u533a", "KSJ2:PubFacAdmin": "\u90fd\u9053\u5e9c\u770c", "amenity": "police", "name": "\u5bae\u524d\u8b66\u5bdf\u7f72\u91ce\u5ddd\u4ea4\u756a", "note": "National-Land Numerical Information (Public Facility) 2006, MLIT Japan", "note:ja": "\u56fd\u571f\u6570\u5024\u60c5\u5831\uff08\u516c\u5171\u65bd\u8a2d\u30c7\u30fc\u30bf\uff09\u5e73\u621019\u5e74\u3000\u56fd\u571f\u4ea4\u901a\u7701", "source": "KSJ2", "source_ref": "http://nlftp.mlit.go.jp/ksj/jpgis/datalist/KsjTmplt-P02-v2_0.html"}}, {"type": "node", "id": 1420816772, "lat": 35.5824037, "lon": 139.5959592, "tags": {"amenity": "police", "name": "\u5bae\u524d\u8b66\u5bdf\u7f72\u99ac\u7d79\u4ea4\u756a", "note": "National-Land Numerical Information (Public Facility) 2006, MLIT Japan", "note:ja": "\u56fd\u571f\u6570\u5024\u60c5\u5831\uff08\u516c\u5171\u65bd\u8a2d\u30c7\u30fc\u30bf\uff09\u5e73\u621019\u5e74\u3000\u56fd\u571f\u4ea4\u901a\u7701", "source": "KSJ2", "source_ref": "http://nlftp.mlit.go.jp/ksj/jpgis/datalist/KsjTmplt-P02-v2_0.html"}}, {"type": "node", "id": 1420816773, "lat": 35.5787398, "lon": 139.5746413, "tags": {"amenity": "police", "name": "\u5bae\u524d\u8b66\u5bdf\u7f72 \u9dfa\u6cbc\u99c5\u524d\u4ea4\u756a", "note": "National-Land Numerical Information (Public Facility) 2006, MLIT Japan", "note:ja": "\u56fd\u571f\u6570\u5024\u60c5\u5831\uff08\u516c\u5171\u65bd\u8a2d\u30c7\u30fc\u30bf\uff09\u5e73\u621019\u5e74\u3000\u56fd\u571f\u4ea4\u901a\u7701", "source": "KSJ2", "source_ref": "http://nlftp.mlit.go.jp/ksj/jpgis/datalist/KsjTmplt-P02-v2_0.html"}}, {"type": "node", "id": 1420834240, "lat": 35.568083, "lon": 139.553152, "tags": {"amenity": "police", "name": "\u9752\u8449\u8b66\u5bdf\u7f72\u3042\u3056\u307f\u91ce\u99c5\u524d\u4ea4\u756a", "name:en": "Azamino Station Koban", "name:ja": "\u9752\u8449\u8b66\u5bdf\u7f72\u3042\u3056\u307f\u91ce\u99c5\u524d\u4ea4\u756a", "note": "National-Land Numerical Information (Public Facility) 2006, MLIT Japan", "note:ja": "\u56fd\u571f\u6570\u5024\u60c5\u5831\uff08\u516c\u5171\u65bd\u8a2d\u30c7\u30fc\u30bf\uff09\u5e73\u621019\u5e74\u3000\u56fd\u571f\u4ea4\u901a\u7701", "source": "KSJ2", "source_ref": "http://nlftp.mlit.go.jp/ksj/jpgis/datalist/KsjTmplt-P02-v2_0.html"}}, {"type": "node", "id": 1420834244, "lat": 35.578248, "lon": 139.55879, "tags": {"amenity": "police", "name": "\u9752\u8449\u8b66\u5bdf\u7f72\u305f\u307e\u30d7\u30e9\u30fc\u30b6\u99c5\u524d\u4ea4\u756a", "name:en": "Tama Plaza Station Koban", "name:ja": "\u9752\u8449\u8b66\u5bdf\u7f72\u305f\u307e\u30d7\u30e9\u30fc\u30b6\u99c5\u524d\u4ea4\u756a", "note": "National-Land Numerical Information (Public Facility) 2006, MLIT Japan", "note:ja": "\u56fd\u571f\u6570\u5024\u60c5\u5831\uff08\u516c\u5171\u65bd\u8a2d\u30c7\u30fc\u30bf\uff09\u5e73\u621019\u5e74\u3000\u56fd\u571f\u4ea4\u901a\u7701", "source": "KSJ2", "source_ref": "http://nlftp.mlit.go.jp/ksj/jpgis/datalist/KsjTmplt-P02-v2_0.html"}}, {"type": "node", "id": 1420834411, "lat": 35.603577, "lon": 139.615867, "tags": {"amenity": "police", "name": "\u9ad8\u6d25\u8b66\u5bdf\u7f72", "source": "KSJ2", "wikidata": "Q11671814", "wikipedia": "ja:\u9ad8\u6d25\u8b66\u5bdf\u7f72"}}, {"type": "node", "id": 1420834420, "lat": 35.5693805, "lon": 139.6222663, "tags": {"amenity": "police", "name": "\u9ad8\u6d25\u8b66\u5bdf\u7f72\u4e45\u672b\u4ea4\u756a", "note": "National-Land Numerical Information (Public Facility) 2006, MLIT Japan", "note:ja": "\u56fd\u571f\u6570\u5024\u60c5\u5831\uff08\u516c\u5171\u65bd\u8a2d\u30c7\u30fc\u30bf\uff09\u5e73\u621019\u5e74\u3000\u56fd\u571f\u4ea4\u901a\u7701", "source": "KSJ2", "source_ref": "http://nlftp.mlit.go.jp/ksj/jpgis/datalist/KsjTmplt-P02-v2_0.html"}}, {"type": "node", "id": 1420834432, "lat": 35.600566, "lon": 139.622202, "tags": {"amenity": "police", "name": "\u9ad8\u6d25\u8b66\u5bdf\u7f72\u5317\u898b\u65b9\u4ea4\u756a", "source": "KSJ2"}}, {"type": "node", "id": 1420834433, "lat": 35.576276, "lon": 139.627673, "tags": {"KSJ2:ADS": "\u5343\u5e74625", "KSJ2:AdminArea": "\u795e\u5948\u5ddd\u770c\u5ddd\u5d0e\u5e02\u9ad8\u6d25\u533a", "KSJ2:PubFacAdmin": "\u90fd\u9053\u5e9c\u770c", "amenity": "police", "name": "\u9ad8\u6d25\u8b66\u5bdf\u7f72\u5343\u5e74\u4ea4\u756a", "note": "National-Land Numerical Information (Public Facility) 2006, MLIT Japan", "note:ja": "\u56fd\u571f\u6570\u5024\u60c5\u5831\uff08\u516c\u5171\u65bd\u8a2d\u30c7\u30fc\u30bf\uff09\u5e73\u621019\u5e74\u3000\u56fd\u571f\u4ea4\u901a\u7701", "source": "KSJ2", "source_ref": "http://nlftp.mlit.go.jp/ksj/jpgis/datalist/KsjTmplt-P02-v2_0.html"}}, {"type": "node", "id": 1420834442, "lat": 35.5905982, "lon": 139.6164429, "tags": {"amenity": "police", "name": "\u9ad8\u6d25\u8b66\u5bdf\u7f72\u672b\u9577\u4ea4\u756a", "source": "KSJ2"}}, {"type": "node", "id": 1420834443, "lat": 35.6045709, "lon": 139.6001497, "tags": {"amenity": "police", "name": "\u9ad8\u6d25\u8b66\u5bdf\u7f72\u6d25\u7530\u5c71\u99c5\u524d\u4ea4\u756a", "note": "National-Land Numerical Information (Public Facility) 2006, MLIT Japan", "note:ja": "\u56fd\u571f\u6570\u5024\u60c5\u5831\uff08\u516c\u5171\u65bd\u8a2d\u30c7\u30fc\u30bf\uff09\u5e73\u621019\u5e74\u3000\u56fd\u571f\u4ea4\u901a\u7701", "source": "KSJ2", "source_ref": "http://nlftp.mlit.go.jp/ksj/jpgis/datalist/KsjTmplt-P02-v2_0.html"}}, {"type": "node", "id": 1420834453, "lat": 35.599579, "lon": 139.611615, "tags": {"amenity": "police", "level": "0", "name": "\u9ad8\u6d25\u8b66\u5bdf\u7f72\u6e9d\u53e3\u99c5\u524d\u4ea4\u756a", "name:en": "Mizonokuchi Station Koban", "name:ja": "\u9ad8\u6d25\u8b66\u5bdf\u7f72\u6e9d\u53e3\u99c5\u524d\u4ea4\u756a"}}, {"type": "node", "id": 1420834960, "lat": 35.6039786, "lon": 139.5021378, "tags": {"amenity": "police", "name": "\u9ebb\u751f\u8b66\u5bdf\u7f72", "source": "KSJ2", "wikidata": "Q11677588", "wikipedia": "ja:\u9ebb\u751f\u8b66\u5bdf\u7f72"}}, {"type": "node", "id": 1420834966, "lat": 35.587553, "lon": 139.515302, "tags": {"amenity": "police", "name": "\u9ebb\u751f\u8b66\u5bdf\u7f72\u5357\u738b\u7985\u5bfa\u4ea4\u756a", "note": "National-Land Numerical Information (Public Facility) 2006, MLIT Japan"}}, {"type": "node", "id": 1420834970, "lat": 35.580315, "lon": 139.484986, "tags": {"KSJ2:ADS": "\u5ca1\u4e0a234", "KSJ2:AdminArea": "\u795e\u5948\u5ddd\u770c\u5ddd\u5d0e\u5e02\u9ebb\u751f\u533a", "KSJ2:PubFacAdmin": "\u90fd\u9053\u5e9c\u770c", "amenity": "police", "name": "\u9ebb\u751f\u8b66\u5bdf\u7f72\u5ca1\u4e0a\u99d0\u5728\u6240", "note": "National-Land Numerical Information (Public Facility) 2006, MLIT Japan", "note:ja": "\u56fd\u571f\u6570\u5024\u60c5\u5831\uff08\u516c\u5171\u65bd\u8a2d\u30c7\u30fc\u30bf\uff09\u5e73\u621019\u5e74\u3000\u56fd\u571f\u4ea4\u901a\u7701", "source": "KSJ2", "source_ref": "http://nlftp.mlit.go.jp/ksj/jpgis/datalist/KsjTmplt-P02-v2_0.html"}}, {"type": "node", "id": 1420834978, "lat": 35.6028847, "lon": 139.5080973, "tags": {"amenity": "police", "name": "\u9ebb\u751f\u8b66\u5bdf\u7f72\u65b0\u767e\u5408\u30f6\u4e18\u99c5\u524d\u4ea4\u756a", "source": "KSJ2"}}, {"type": "node", "id": 1420834981, "lat": 35.57868, "lon": 139.509344, "tags": {"amenity": "police", "name": "\u9ebb\u751f\u8b66\u5bdf\u7f72\u6771\u67ff\u751f\u99d0\u5728\u6240", "note": "National-Land Numerical Information (Public Facility) 2006, MLIT Japan", "source": "KSJ2", "source_ref": "http://nlftp.mlit.go.jp/ksj/jpgis/datalist/KsjTmplt-P02-v2_0.html"}}, {"type": "node", "id": 1420834989, "lat": 35.5904485, "lon": 139.4987828, "tags": {"amenity": "police", "name": "\u9ebb\u751f\u8b66\u5bdf\u7f72\u67ff\u751f\u4ea4\u756a"}}, {"type": "node", "id": 1420834998, "lat": 35.597441, "lon": 139.515653, "tags": {"amenity": "police", "name": "\u9ebb\u751f\u8b66\u5bdf\u7f72\u738b\u7985\u5bfa\u4ea4\u756a"}}, {"type": "node", "id": 1420835002, "lat": 35.6162172, "lon": 139.5160182, "tags": {"amenity": "police", "name": "\u9ebb\u751f\u8b66\u5bdf\u7f72\u7d30\u5c71\u4ea4\u756a", "note": "National-Land Numerical Information (Public Facility) 2006, MLIT Japan", "source": "KSJ2", "source_ref": "http://nlftp.mlit.go.jp/ksj/jpgis/datalist/KsjTmplt-P02-v2_0.html"}}, {"type": "node", "id": 1606956314, "lat": 35.6305442, "lon": 139.5499179, "tags": {"amenity": "police", "name": "\u4e2d\u91ce\u5cf6\u4ea4\u756a"}}, {"type": "node", "id": 1687194339, "lat": 35.5767723, "lon": 139.6598392, "tags": {"amenity": "police", "name": "\u6b66\u8535\u5c0f\u6749\u99c5\u524d\u4ea4\u756a", "police": "box"}}, {"type": "node", "id": 1815978193, "lat": 35.6501343, "lon": 139.4186512}, {"type": "node", "id": 1815978195, "lat": 35.6501462, "lon": 139.4187429}, {"type": "node", "id": 1815978197, "lat": 35.6501798, "lon": 139.4186423}, {"type": "node", "id": 1815978199, "lat": 35.6501917, "lon": 139.418734}, {"type": "node", "id": 1870902191, "lat": 35.6121308, "lon": 139.6293967, "tags": {"amenity": "police", "name": "\u4e8c\u5b50\u7389\u5ddd\u4ea4\u756a", "official_name": "\u7389\u5ddd\u8b66\u5bdf\u7f72\u4e8c\u5b50\u7389\u5ddd\u4ea4\u756a", "operator": "\u7389\u5ddd\u8b66\u5bdf\u7f72", "wheelchair": "yes"}}, {"type": "node", "id": 1948975273, "lat": 35.6475655, "lon": 139.7094273}, {"type": "node", "id": 1948975289, "lat": 35.647493, "lon": 139.7094005}, {"type": "node", "id": 1948975294, "lat": 35.64756, "lon": 139.7094427}, {"type": "node", "id": 1948975310, "lat": 35.6475192, "lon": 139.7094664}, {"type": "node", "id": 2153058397, "lat": 35.602095, "lon": 139.6989969, "tags": {"addr:full": "\u5927\u7530\u533a\u4e0a\u6c60\u53f01-6-1", "amenity": "police", "name": "\u7530\u5712\u8abf\u5e03\u8b66\u5bdf\u7f72 \u5357\u5343\u675f\u5730\u57df\u5b89\u5168\u30bb\u30f3\u30bf\u30fc", "source": "Bing,2007-04;survey", "wheelchair": "yes"}}, {"type": "node", "id": 2195653720, "lat": 35.6226453, "lon": 139.4210846}, {"type": "node", "id": 2195653721, "lat": 35.6226553, "lon": 139.4212167}, {"type": "node", "id": 2195653723, "lat": 35.6226797, "lon": 139.421214}, {"type": "node", "id": 2195653726, "lat": 35.6226825, "lon": 139.421251}, {"type": "node", "id": 2195653740, "lat": 35.6228676, "lon": 139.4207015}, {"type": "node", "id": 2195653742, "lat": 35.6228945, "lon": 139.421056}, {"type": "node", "id": 2195653743, "lat": 35.6229745, "lon": 139.4211682}, {"type": "node", "id": 2195653744, "lat": 35.6229782, "lon": 139.4212171}, {"type": "node", "id": 2195653747, "lat": 35.6230065, "lon": 139.4206835}, {"type": "node", "id": 2195653749, "lat": 35.6230427, "lon": 139.4211604}, {"type": "node", "id": 2196765010, "lat": 35.6243479, "lon": 139.4239767}, {"type": "node", "id": 2196765013, "lat": 35.6243739, "lon": 139.4240472}, {"type": "node", "id": 2196765018, "lat": 35.624394, "lon": 139.4239509}, {"type": "node", "id": 2196765021, "lat": 35.6244201, "lon": 139.4240214}, {"type": "node", "id": 2307754087, "lat": 35.60028, "lon": 139.6914844}, {"type": "node", "id": 2307754090, "lat": 35.6003089, "lon": 139.6916564}, {"type": "node", "id": 2307754094, "lat": 35.6003211, "lon": 139.6915159}, {"type": "node", "id": 2307754096, "lat": 35.6003597, "lon": 139.6915061}, {"type": "node", "id": 2307754098, "lat": 35.6003818, "lon": 139.6916379}, {"type": "node", "id": 2702150887, "lat": 35.6080073, "lon": 139.5159452}, {"type": "node", "id": 2702150888, "lat": 35.6080626, "lon": 139.5160021}, {"type": "node", "id": 2702150890, "lat": 35.6080827, "lon": 139.5158342}, {"type": "node", "id": 2702150892, "lat": 35.6080967, "lon": 139.5159064}, {"type": "node", "id": 2702150894, "lat": 35.6081149, "lon": 139.5159251}, {"type": "node", "id": 2702150895, "lat": 35.6081198, "lon": 139.5158723}, {"type": "node", "id": 2784707377, "lat": 35.6071656, "lon": 139.6227063}, {"type": "node", "id": 2807755701, "lat": 35.57677, "lon": 139.659847, "tags": {"amenity": "police", "name": "\u4e2d\u539f\u8b66\u5bdf\u7f72\u6b66\u8535\u5c0f\u6749\u99c5\u524d\u4ea4\u756a", "source": "survey", "wheelchair": "yes"}}, {"type": "node", "id": 2817115955, "lat": 35.6320264, "lon": 139.4572265}, {"type": "node", "id": 2817115956, "lat": 35.6320277, "lon": 139.4573561}, {"type": "node", "id": 2817115967, "lat": 35.6320836, "lon": 139.4572256}, {"type": "node", "id": 2817115969, "lat": 35.632085, "lon": 139.4573552}, {"type": "node", "id": 2822146596, "lat": 35.6504185, "lon": 139.4466729}, {"type": "node", "id": 2822146723, "lat": 35.6504263, "lon": 139.4467296}, {"type": "node", "id": 2822146752, "lat": 35.6504667, "lon": 139.4466628}, {"type": "node", "id": 2822146771, "lat": 35.6504746, "lon": 139.4467195}, {"type": "node", "id": 2859434644, "lat": 35.6242054, "lon": 139.438524}, {"type": "node", "id": 2859434648, "lat": 35.624225, "lon": 139.4384374}, {"type": "node", "id": 2859434659, "lat": 35.6243087, "lon": 139.4385595}, {"type": "node", "id": 2859434663, "lat": 35.6243172, "lon": 139.4385222}, {"type": "node", "id": 2890303138, "lat": 35.6323288, "lon": 139.5336098}, {"type": "node", "id": 2890303139, "lat": 35.632385, "lon": 139.5336513}, {"type": "node", "id": 2890303140, "lat": 35.6323642, "lon": 139.5336938}, {"type": "node", "id": 2890303141, "lat": 35.6323081, "lon": 139.5336522}, {"type": "node", "id": 3138120742, "lat": 35.651081, "lon": 139.6368666}, {"type": "node", "id": 3138120743, "lat": 35.6511238, "lon": 139.6368447}, {"type": "node", "id": 3138120744, "lat": 35.6511268, "lon": 139.6370024}, {"type": "node", "id": 3138120745, "lat": 35.6511696, "lon": 139.6369805}, {"type": "node", "id": 3160816112, "lat": 35.6404435, "lon": 139.6667571}, {"type": "node", "id": 3160816113, "lat": 35.6402913, "lon": 139.6667734}, {"type": "node", "id": 3160816114, "lat": 35.6403262, "lon": 139.6672656}, {"type": "node", "id": 3160816115, "lat": 35.6404784, "lon": 139.6672492}, {"type": "node", "id": 3743716434, "lat": 35.6318298, "lon": 139.438579}, {"type": "node", "id": 3743716460, "lat": 35.6318703, "lon": 139.4386264}, {"type": "node", "id": 3743716461, "lat": 35.6318773, "lon": 139.4385176}, {"type": "node", "id": 3743716475, "lat": 35.6319162, "lon": 139.4385631}, {"type": "node", "id": 4067639657, "lat": 35.603984, "lon": 139.6718524}, {"type": "node", "id": 4067639658, "lat": 35.60399, "lon": 139.6718983}, {"type": "node", "id": 4067639659, "lat": 35.6040216, "lon": 139.6718403}, {"type": "node", "id": 4067639660, "lat": 35.6040225, "lon": 139.6718445}, {"type": "node", "id": 4067639661, "lat": 35.6040475, "lon": 139.6718348}, {"type": "node", "id": 4067639662, "lat": 35.6040546, "lon": 139.6718866}, {"type": "node", "id": 4450166929, "lat": 35.6517145, "lon": 139.5441448}, {"type": "node", "id": 4450166930, "lat": 35.6517039, "lon": 139.544207}, {"type": "node", "id": 4450166931, "lat": 35.6516211, "lon": 139.5441861}, {"type": "node", "id": 4450166932, "lat": 35.6516292, "lon": 139.544125}, {"type": "node", "id": 4921678077, "lat": 35.6154872, "lon": 139.4302834}, {"type": "node", "id": 4921678078, "lat": 35.6155091, "lon": 139.4303907}, {"type": "node", "id": 4921678079, "lat": 35.6154506, "lon": 139.4303437}, {"type": "node", "id": 4921678080, "lat": 35.6154412, "lon": 139.4302976}, {"type": "node", "id": 5002377050, "lat": 35.6409912, "lon": 139.4441274}, {"type": "node", "id": 5002377051, "lat": 35.640992, "lon": 139.4442397}, {"type": "node", "id": 5002377052, "lat": 35.6409397, "lon": 139.4442403}, {"type": "node", "id": 5002377053, "lat": 35.6409389, "lon": 139.444128}, {"type": "node", "id": 5002588549, "lat": 35.622865, "lon": 139.4206675}, {"type": "node", "id": 5002588550, "lat": 35.6229361, "lon": 139.4206594}, {"type": "node", "id": 5002588551, "lat": 35.6229385, "lon": 139.4206913}, {"type": "node", "id": 5162634021, "lat": 35.6347861, "lon": 139.6134049}, {"type": "node", "id": 5162634022, "lat": 35.6347142, "lon": 139.6134135}, {"type": "node", "id": 5162634023, "lat": 35.6347191, "lon": 139.6134751}, {"type": "node", "id": 5162634024, "lat": 35.6347909, "lon": 139.6134665}, {"type": "node", "id": 5455560112, "lat": 35.6319192, "lon": 139.4385866}, {"type": "node", "id": 5455560113, "lat": 35.6319002, "lon": 139.4386111}, {"type": "node", "id": 5455560114, "lat": 35.6318907, "lon": 139.4386},