{"version": 0.6, "generator": "Overpass API 0.7.61.2 bd0cdeae", "osm3s": {"timestamp_osm_base": "2023-07-21T09:09:30Z", "copyright": "The data included in this document is from www.openstreetmap.org. The data is made available under ODbL."}, "elements": [{"type": "node", "id": 1443986279, "lat": 35.6227963, "lon": 139.4264966, "tags": {"amenity": "cinema", "branch": "\u591a\u6469\u30bb\u30f3\u30bf\u30fc", "brand": "\u30a4\u30aa\u30f3\u30b7\u30cd\u30de", "brand:en": "AEON Cinema", "brand:ja": "\u30a4\u30aa\u30f3\u30b7\u30cd\u30de", "brand:wikidata": "Q17192792", "brand:wikipedia": "ja:\u30a4\u30aa\u30f3\u30a8\u30f3\u30bf\u30fc\u30c6\u30a4\u30e1\u30f3\u30c8", "cinema:3D": "yes", "description": "2F", "level": "1", "name": "\u30a4\u30aa\u30f3\u30b7\u30cd\u30de", "name:en": "AEON Cinema", "name:ja": "\u30a4\u30aa\u30f3\u30b7\u30cd\u30de", "operator": "\u30a4\u30aa\u30f3\u30a8\u30f3\u30bf\u30fc\u30c6\u30a4\u30e1\u30f3\u30c8", "screen": "8"}}, {"type": "node", "id": 1657287461, "lat": 35.6591861, "lon": 139.6988833, "tags": {"amenity": "cinema", "name": "\u6771\u5b9d\u30b7\u30cd\u30de", "name:en": "Toho Cinemas", "source": "survey"}}, {"type": "node", "id": 2315580070, "lat": 35.6025293, "lon": 139.5069614, "tags": {"addr:city": "\u5ddd\u5d0e\u5e02", "addr:country": "JP", "addr:full": "\u795e\u5948\u5ddd\u770c\u5ddd\u5d0e\u5e02\u9ebb\u751f\u533a\u4e0a\u9ebb\u751f", "addr:postcode": "215-0021", "addr:province": "\u795e\u5948\u5ddd\u770c", "addr:quarter": "\u4e0a\u9ebb\u751f", "addr:suburb": "\u9ebb\u751f\u533a", "amenity": "cinema", "branch": "\u65b0\u767e\u5408\u30f6\u4e18", "brand": "\u30a4\u30aa\u30f3\u30b7\u30cd\u30de", "brand:en": "AEON Cinema", "brand:ja": "\u30a4\u30aa\u30f3\u30b7\u30cd\u30de", "brand:wikidata": "Q17192792", "brand:wikipedia": "ja:\u30a4\u30aa\u30f3\u30a8\u30f3\u30bf\u30fc\u30c6\u30a4\u30e1\u30f3\u30c8", "cinema:3D": "yes", "level": "5", "name": "\u30a4\u30aa\u30f3\u30b7\u30cd\u30de", "name:en": "AEON Cinema", "name:ja": "\u30a4\u30aa\u30f3\u30b7\u30cd\u30de", "operator": "\u30a4\u30aa\u30f3\u30a8\u30f3\u30bf\u30fc\u30c6\u30a4\u30e1\u30f3\u30c8", "screen": "9", "wheelchair": "yes"}}, {"type": "node", "id": 4930246533, "lat": 35.6524628, "lon": 139.5423047}, {"type": "node", "id": 4930246534, "lat": 35.652725, "lon": 139.5414634}, {"type": "node", "id": 4930246535, "lat": 35.6524846, "lon": 139.5413528}, {"type": "node", "id": 4930246539, "lat": 35.6523111, "lon": 139.5419161}, {"type": "node", "id": 4930246541, "lat": 35.6524306, "lon": 139.5419718}, {"type": "node", "id": 4930246542, "lat": 35.6523353, "lon": 139.5422458}, {"type": "node", "id": 6587855257, "lat": 35.6109703, "lon": 139.6298945, "tags": {"amenity": "cinema", "brand": "109\u30b7\u30cd\u30de\u30ba", "brand:en": "109 Cinemas", "brand:ja": "109\u30b7\u30cd\u30de\u30ba", "brand:wikidata": "Q10854269", "brand:wikipedia": "ja:109\u30b7\u30cd\u30de\u30ba", "level": "2", "name": "109\u30b7\u30cd\u30de\u30ba", "name:en": "109 Cinemas", "name:ja": "109\u30b7\u30cd\u30de\u30ba"}}, {"type": "node", "id": 9734075711, "lat": 35.6603034, "lon": 139.7070219, "tags": {"addr:city": "\u6e0b\u8c37\u533a", "addr:full": "\u6771\u4eac\u90fd\u6e0b\u8c37\u533a\u6e0b\u8c372-10-2", "addr:postcode": "150-0002", "addr:province": "\u6771\u4eac\u90fd", "addr:quarter": "\u6e0b\u8c37", "amenity": "cinema", "contact:phone": "+81 3 5766 0114", "name": "\u30b7\u30a2\u30bf\u30fc\uff65\u30a4\u30e1\u30fc\u30b8\u30d5\u30a9\u30fc\u30e9\u30e0", "name:en": "Theatre Image Forum", "name:ja": "\u30b7\u30a2\u30bf\u30fc\u30fb\u30a4\u30e1\u30fc\u30b8\u30d5\u30a9\u30fc\u30e9\u30e0", "screen": "2", "source": "survey", "website": "https://www.imageforum.co.jp/theatre/"}}, {"type": "node", "id": 10247981572, "lat": 35.6059309, "lon": 139.5056744, "tags": {"alt_name": "\u30a2\u30eb\u30c6\u30ea\u30aa\u30fb\u30b7\u30cd\u30de", "amenity": "cinema", "contact:phone": "+81 44 955 0107", "level": "1", "name": "\u30a2\u30eb\u30c6\u30ea\u30aa\u6620\u753b\u9928", "screen": "1", "source": "survey"}}, {"type": "way", "id": 502605945, "nodes": [4930246533, 4930246534, 4930246535, 4930246539, 4930246541, 4930246542, 4930246533], "tags": {"amenity": "cinema", "brand": "\u30a4\u30aa\u30f3\u30b7\u30cd\u30de", "brand:en": "AEON Cinema", "brand:ja": "\u30a4\u30aa\u30f3\u30b7\u30cd\u30de", "brand:wikidata": "Q17192792", "brand:wikipedia": "ja:\u30a4\u30aa\u30f3\u30a8\u30f3\u30bf\u30fc\u30c6\u30a4\u30e1\u30f3\u30c8", "building": "yes", "building:levels": "5", "height": "20", "name": "\u30c8\u30ea\u30a8C\u9928\u30a4\u30aa\u30f3\u30b7\u30cd\u30de\u30b7\u30a2\u30bf\u30b9\u8abf\u5e03", "name:en": "Aeon Cinema Theatus Chofu", "name:ja": "\u30a4\u30aa\u30f3\u30b7\u30cd\u30de", "name:ja_kana": "\u3044\u304a\u3093\u3057\u306d\u307e\u3057\u3042\u305f\u3059\u3061\u3087\u3046\u3075", "source": "survey", "survey:date": "2017-08-20", "website": "https://www.aeoncinema.com/cinema/chofu/"}}]}